IDtrajet,Ville de Départ,Ville d'arrivée,A partir du,Jusqu'au,Départ_Latitude,Départ_Longitude,Arrivé_Latitude,Arrivé_Longitude
733569,Dilbeek (BE17),Antwerpen (BE20),07/03/2024 à 09:00,12/03/2024 à 15:00,50.8480711,4.2662591,51.2211097,4.3997081
733528,Drogenbos (BE16),Antwerpen (BE20),07/03/2024 à 09:00,12/03/2024 à 15:00,50.786532,4.3173542,51.2211097,4.3997081
733613,Eupen (BE47),Antwerpen (BE20),07/03/2024 à 09:00,12/03/2024 à 15:00,50.6305665,6.0312717,51.2211097,4.3997081
733498,Sint-niklaas (BE91),Antwerpen (BE20),07/03/2024 à 09:00,12/03/2024 à 15:00,51.1646685,4.1395124,51.2211097,4.3997081
734178,Ambérieu-en-bugey (FR01),Guéret (FR23),12/03/2024 à 08:30,12/03/2024 à 15:00 Rdv 13:00-15:00,45.9584309,5.3595099,46.1686865,1.8713349
