IDtrajet,Ville de Départ,Ville d'arrivée,A partir du,Jusqu'au,Départ_Latitude,Départ_Longitude,Arrivé_Latitude,Arrivé_Longitude
738774,Feignies (FR59),Abbeville (FR80),20/03/2024 à 09:30,20/03/2024 à 18:30 Rdv 16:30-18:30,50.2954202,3.914409,50.1060835,1.8337029
734964,Montauban (FR82),Albias (FR82),20/03/2024 à 12:00 Rdv 12:00-14:00,20/03/2024 à 16:00,44.0175835,1.3549991,44.0908333,1.4502778
738102,Aldaia (ES46),Alcalá de los gazules (ES11),20/03/2024 à 09:00,20/03/2024 à 19:00 Rdv 17:00-19:00,0.0,0.0,36.4618805,-5.7238891
737913,Franqueville saint pierre (FR76),Ambarès-et-lagrave (FR33),26/03/2024 à 15:00 Rdv 15:00-17:00,27/03/2024 à 15:00,49.4027,1.1825,44.9259011,-0.4881846
735933,Mérignac (FR33),Ambarès-et-lagrave (FR33),26/03/2024 à 10:00 Rdv 10:00-12:00,26/03/2024 à 12:00,44.842168,-0.6469022,44.9259011,-0.4881846
738431,Rochetoirin (FR38),Ambérieu-en-bugey (FR01),20/03/2024 à 09:00,20/03/2024 à 17:00,45.5814,5.41905,45.9584309,5.3595099
737587,Valff (FR67),Ambérieu-en-bugey (FR01),25/03/2024 à 15:00 Rdv 15:00-17:00,26/03/2024 à 10:00,48.4222377,7.5227937,45.9584309,5.3595099
736862,Clermont-ferrand (FR63),Ambérieu-en-bugey (FR01),26/03/2024 à 14:00,27/03/2024 à 12:00,45.7774551,3.0819427,45.9584309,5.3595099
734122,Clermont-ferrand (FR63),Ambérieu-en-bugey (FR01),26/03/2024 à 14:00 Rdv 14:00-16:00,27/03/2024 à 12:00,45.7774551,3.0819427,45.9584309,5.3595099
738609,Bellignat (FR01),Ambérieu-en-bugey (FR01),20/03/2024 à 09:00 Rdv 9:00-11:00,20/03/2024 à 16:00,46.2418811,5.6293467,45.9584309,5.3595099
737393,Avrigny (FR60),Antony (FR92),26/03/2024 à 09:00,26/03/2024 à 12:00 Rdv 10:00-12:00,49.3817833,2.57932,48.753554,2.2959423
738831,Zaventem (BE19),Antwerpen (BE20),19/03/2024 à 09:00,19/03/2024 à 15:00,50.8806207,4.4730008,51.2211097,4.3997081
738488,Bruxelles (BE10),Antwerpen (BE21),22/03/2024 à 09:00,22/03/2024 à 15:00,50.8550018,4.3512333761166175,51.2211097,4.3997081
737966,Rhode-saint-genèse (BE16),Antwerpen (BE21),20/03/2024 à 09:00,20/03/2024 à 15:00,50.74503,4.3463687,51.2211097,4.3997081
738491,Bruxelles (BE10),Antwerpen (BE21),22/03/2024 à 09:00,22/03/2024 à 15:00,50.8550018,4.3512333761166175,51.2211097,4.3997081
738505,Bruxelles (BE10),Antwerpen (BE21),22/03/2024 à 09:00,22/03/2024 à 15:00,50.8550018,4.3512333761166175,51.2211097,4.3997081
738503,Bruxelles (BE10),Antwerpen (BE21),22/03/2024 à 09:00,22/03/2024 à 15:00,50.8550018,4.3512333761166175,51.2211097,4.3997081
738767,Evere (BE11),Antwerpen (BE21),19/03/2024 à 09:00,19/03/2024 à 15:00,50.8720096,4.4034182,51.2211097,4.3997081
738487,Bruxelles (BE10),Antwerpen (BE21),22/03/2024 à 09:00,22/03/2024 à 15:00,50.8550018,4.3512333761166175,51.2211097,4.3997081
738644,Mechelen (BE28),Antwerpen (BE21),19/03/2024 à 09:00,19/03/2024 à 15:00,51.0281381,4.4803453,51.2211097,4.3997081
738489,Bruxelles (BE10),Antwerpen (BE21),22/03/2024 à 09:00,22/03/2024 à 15:00,50.8550018,4.3512333761166175,51.2211097,4.3997081
738639,Mechelen (BE28),Antwerpen (BE21),19/03/2024 à 09:00,19/03/2024 à 15:00,51.0281381,4.4803453,51.2211097,4.3997081
738637,Zaventem (BE19),Antwerpen (BE21),19/03/2024 à 09:00,19/03/2024 à 15:00,50.8806207,4.4730008,51.2211097,4.3997081
738830,Zaventem (BE19),Antwerpen (BE21),19/03/2024 à 09:00,19/03/2024 à 15:00,50.8806207,4.4730008,51.2211097,4.3997081
738641,Mechelen (BE28),Antwerpen (BE21),19/03/2024 à 09:00,19/03/2024 à 15:00,51.0281381,4.4803453,51.2211097,4.3997081
738640,Mechelen (BE28),Antwerpen (BE21),19/03/2024 à 09:00,19/03/2024 à 15:00,51.0281381,4.4803453,51.2211097,4.3997081
737517,Asse (BE17),Antwerpen (BE21),18/03/2024 à 09:00,20/03/2024 à 15:00,50.9094333,4.2015646,51.2211097,4.3997081
738773,Couëron (FR44),Arnage (FR72),19/03/2024 à 09:00,21/03/2024 à 17:00,0.0,0.0,47.9269544,0.1889245
737111,La chapelle-d\'aurec (FR43),Aubière (FR63),03/04/2024 à 11:00 Rdv 11:00-12:00,03/04/2024 à 15:00,45.3355965,4.2072832,45.7512575,3.1144195
738779,Villeneuve-d\'ascq (FR59),Avion (FR62),22/03/2024 à 12:00 Rdv 12:00-14:00,22/03/2024 à 16:00,50.6193174,3.1314002,50.4126128,2.8343891
736189,Arras (FR62),Bailly-romainvilliers (FR77),22/03/2024 à 09:00,22/03/2024 à 11:00,50.290277,2.776273,2.8247398,48.8471425
738527,Périgueux (FR24),Bassens (FR33),01/04/2024 à 09:00,01/04/2024 à 11:00,45.1909365,0.7184407,44.9015003,-0.5163222
738371,Domme (FR24),Bassens (FR33),28/03/2024 à 12:00 Rdv 12:00-14:00,28/03/2024 à 16:00,44.8022673,1.2140018,44.9015003,-0.5163222
737855,Saint georges de didonne (FR17),Bassens (FR33),29/03/2024 à 09:00,29/03/2024 à 11:30,45.6024886,-0.997949,44.9015003,-0.5163222
732005,Salviac (FR46),Bassens (FR33),29/03/2024 à 09:00,29/03/2024 à 14:00,44.6806047,1.2611389,44.9015003,-0.5163222
738445,Laxou (FR54),Bezannes (FR51),25/03/2024 à 08:00 Rdv 8:00-9:00,25/03/2024 à 12:00 Rdv 10:45-12:00,0.0,0.0,0.0,0.0
736743,Illzach (FR68),Biltzheim (FR68),02/04/2024 à 09:00,02/04/2024 à 11:00 Rdv 9:00-11:00,47.7815313,7.347339,47.9585244,7.3896085
737457,Poitiers (FR86),Blain (FR44),22/03/2024 à 08:30 Rdv 8:30-9:30,22/03/2024 à 16:00 Rdv 14:00-16:00,46.5802596,0.340196,47.4755536,-1.7643647
738281,Bassens (FR33),Boisseuil (FR87),04/04/2024 à 10:30,04/04/2024 à 15:30,44.9015003,-0.5163222,45.7699722,1.3307721
738224,Bassens (FR33),Bort-les-orgues (FR19),20/03/2024 à 09:00,20/03/2024 à 14:00,44.9015003,-0.5163222,45.4010305,2.4992935
738699,Forbach (FR57),Boulogne billancourt (FR92),21/03/2024 à 09:15,21/03/2024 à 16:00 Rdv 14:00-16:00,49.1862822,6.8958562,48.8356649,2.240206
736276,Rueil-malmaison (FR92),Boulogne-billancourt (FR92),20/03/2024 à 14:00,20/03/2024 à 15:00,48.8791007996,2.17808008194,48.8356649,2.240206
737866,Ingrandes (FR86),Bourges (FR18),22/03/2024 à 10:00,22/03/2024 à 16:00 Rdv 14:00-16:00,46.8759026,0.5688208,47.0811658,2.399125
738207,Saint-léger-des-vignes (FR58),Bourges (FR18),19/03/2024 à 11:00,19/03/2024 à 16:00 Rdv 14:00-16:00,46.839359,3.4554311,47.0811658,2.399125
737392,Normanville (FR27),Bourgtheroulde (FR27),08/04/2024 à 10:00 Rdv 10:00-12:00,08/04/2024 à 16:00,49.6948768,0.5941406,49.8584882,0.7117745
738628,Liège (BE40),Braine-le-château (BE14),18/03/2024 à 13:30,18/03/2024 à 18:00,50.6450944,5.5736112,50.6827864,4.2669864
738591,Le relecq-kerhuon (FR29),Brech (FR56),28/03/2024 à 12:30,29/03/2024 à 12:30,48.4075514,-4.3965573,47.721585,-2.9969193
738375,Theix-noyalo (FR56),Brech (FR56),22/03/2024 à 10:00 Rdv 10:00-12:00,22/03/2024 à 12:45,47.63049455,-2.637546715043245,47.721585,-2.9969193
737563,Orvault (FR44),Brive-la-gaillarde (FR19),19/03/2024 à 17:00 Rdv 17:00-19:00,20/03/2024 à 14:00,-1.6194319725,47.2511912196,45.1584982,1.5332389
737980,Bourges (FR18),Brive-la-gaillarde (FR19),02/04/2024 à 09:55,02/04/2024 à 16:00 Rdv 14:00-16:00,47.0811658,2.399125,45.1584982,1.5332389
736993,Canéjan (FR33),Bruges (FR33),21/03/2024 à 10:00,21/03/2024 à 11:00,44.7626562,-0.6540587,51.2085526,3.226772
735455,Essarts-en-bocage (FR85),Bruges (FR33),25/03/2024 à 16:30,26/03/2024 à 11:00,46.78605775,-1.2528102863462225,51.2085526,3.226772
737180,La roche-sur-yon (FR85),Bruges (FR33),27/03/2024 à 12:00,27/03/2024 à 16:00,46.6705431,-1.4269698,51.2085526,3.226772
737715,Chartres-de-bretagne (FR35),Bréal-sous-montfort (FR35),28/03/2024 à 08:30,28/03/2024 à 15:00 Rdv 13:00-15:00,48.0432406,-1.7082369,0.0,0.0
738358,Saint-quentin (FR02),Butry-sur-oise (FR95),22/03/2024 à 09:00,22/03/2024 à 11:30,49.8465253,3.2876843,49.0856723,2.1979556
736992,Bassens (FR33),Canéjan (FR33),21/03/2024 à 09:00,21/03/2024 à 10:00,44.9015003,-0.5163222,44.7626562,-0.6540587
734380,Périgueux (FR24),Castelnau-d'estrétefonds (FR31),19/03/2024 à 14:00 Rdv 14:00-16:00,20/03/2024 à 12:00,45.1909365,0.7184407,43.78251,1.3590892
736112,Montpellier (FR34),Castelnau-d'estrétefonds (FR31),10/04/2024 à 14:00 Rdv 14:00-16:00,10/04/2024 à 16:00,43.6112422,3.8767337,43.78251,1.3590892
736120,Montpellier (FR34),Castelnau-d'estrétefonds (FR31),10/04/2024 à 09:00 Rdv 9:00-11:00,10/04/2024 à 16:00,43.6112422,3.8767337,43.78251,1.3590892
737467,Mur-de-barrez (FR12),Castelnau-d\'estrétefonds (FR31),26/03/2024 à 14:00 Rdv 14:00-15:00,27/03/2024 à 12:00,44.8416264,2.6635471,43.78251,1.3590892
734961,Tarbes (FR65),Castelnau-d\'estrétefonds (FR31),20/03/2024 à 12:00 Rdv 12:00-14:00,20/03/2024 à 16:00,43.232858,781021.0,43.78251,1.3590892
728790,Caupenne-d\'armagnac (FR32),Castelnau-d\'estrétefonds (FR31),19/03/2024 à 09:00 Rdv 9:00-11:00,19/03/2024 à 15:15,0.0,0.0,43.78251,1.3590892
738916,Billere (FR64),Castelnau-destrétefonds (FR31),21/03/2024 à 09:30,21/03/2024 à 14:00,0.0,0.0,0.0,0.0
733845,Saint-ail (FR54),Cattenom (FR57),19/03/2024 à 08:15,19/03/2024 à 12:00 Rdv 10:00-12:00,49.1808501,5.9960901,49.4074405,6.244669
736415,Thann (FR68),Cesson (FR77),21/03/2024 à 08:30,21/03/2024 à 15:00,47.8101008,7.1020957,48.5624381,2.6021145
738061,Vitrolles (FR13),Cessy (FR01),18/03/2024 à 08:00,19/03/2024 à 17:00,44.4347105,5.9496043,46.3181308,6.0691189
736620,Corbas (FR69),Champlan (FR91),19/03/2024 à 08:00,19/03/2024 à 15:00,45.6662663,4.9015205,48.7073405,2.2758626
736688,Saint-jean-d\'illac (FR33),Champniers (FR16),25/03/2024 à 11:30,25/03/2024 à 16:00,44.8101856,-0.7815257,45.7145725,0.2050544
738050,Lagnieu (FR01),Chaponost (FR69),25/03/2024 à 08:30,25/03/2024 à 13:00 Rdv 11:00-13:00,45.9034952,5.3480192,0.0,0.0
732040,Hasselt (BE35),Charleroi (BE60),25/03/2024 à 08:30,25/03/2024 à 10:30,50.9303735,5.3378043,50.4116233,4.444528
738962,Saint-ail (FR54),Chooz (FR08),21/03/2024 à 08:00,21/03/2024 à 12:00,49.1808501,5.9960901,50.1020081,4.8070034
738905,Nieul le dolent (FR85),Château-thébaud (FR44),21/03/2024 à 15:00 Rdv 15:00-16:00,21/03/2024 à 17:00,46.5745648,-1.5077617,47.1246294,-1.4213694
735389,Franconville (FR95),Château-thébaud (FR44),20/03/2024 à 15:00 Rdv 15:00-17:00,20/03/2024 à 18:00,0.0,0.0,47.1246294,-1.4213694
735110,Taverny (FR95),Château-thébaud (FR44),29/03/2024 à 09:00 Rdv 9:00-11:00,29/03/2024 à 12:00,49.0265888,2.2234971,47.1246294,-1.4213694
731859,Fontenay-sous-bois (FR94),Château-thébaud (FR44),28/03/2024 à 10:00 Rdv 10:00-12:00,28/03/2024 à 15:00,48.8490721,2.4749347,47.1246294,-1.4213694
730918,Bussy-saint-georges (FR77),Château-thébaud (FR44),29/03/2024 à 13:00 Rdv 13:00-15:00,29/03/2024 à 16:00,48.8389953,2.7171086,47.1246294,-1.4213694
738707,Les alleuds (FR49),Château-thébaud (FR44),03/04/2024 à 10:00 Rdv 10:00-12:00,03/04/2024 à 14:25,47.31614075,-0.4151700234719045,47.1246294,-1.4213694
728259,Avilly-saint-leonard (FR60),Château-thébaud (FR44),01/04/2024 à 15:00 Rdv 15:00-17:00,02/04/2024 à 16:00,0.0,0.0,47.1246294,-1.4213694
736381,Miramas (FR13),Châteauneuf-de-gadagne (FR84),25/03/2024 à 08:30,25/03/2024 à 13:00 Rdv 11:00-13:00,43.582733,5.0025809,43.927603,4.9442687
735495,Neuvy (FR41),Clamecy (FR58),19/03/2024 à 11:00,19/03/2024 à 17:00 Rdv 15:00-17:00,48.7469304,3.5177618,49.4286111,3.3619444
738755,Miramas (FR13),Clarensac (FR30),22/03/2024 à 08:45,22/03/2024 à 15:30,43.582733,5.0025809,43.8266904,4.2176541
734121,Castelnau-d'estrétefonds (FR31),Clermont-ferrand (FR63),26/03/2024 à 08:30,26/03/2024 à 16:00 Rdv 14:00-16:00,43.78251,1.3590892,45.7774551,3.0819427
736861,Castelnau-d'estrétefonds (FR31),Clermont-ferrand (FR63),26/03/2024 à 09:15,26/03/2024 à 16:00 Rdv 14:00-16:00,43.78251,1.3590892,45.7774551,3.0819427
737501,Bassens (FR33),Clermont-ferrand (FR63),19/03/2024 à 08:30,19/03/2024 à 15:00 Rdv 13:00-15:00,44.9015003,-0.5163222,45.7774551,3.0819427
738642,Ciudad real (ES13),Cocentaina (ES03),20/03/2024 à 09:30,20/03/2024 à 18:45,38.95973475,-3.882874440248544,38.744158,-0.4400707
738867,Chilly-mazarin (FR91),Corbie (FR80),20/03/2024 à 09:00,20/03/2024 à 17:00,48.7026161,2.3123582,49.9082911,2.5110728
737822,Berck (FR62),Cormontreuil (FR51),03/04/2024 à 14:00,04/04/2024 à 10:00,0.0,0.0,0.0,0.0
738404,Gent (BE90),Diksmuide (BE86),28/03/2024 à 09:00,28/03/2024 à 16:30,51.0538286,3.7250121,51.0333408,2.8647185
738370,Bassens (FR33),Domme (FR24),28/03/2024 à 09:00,28/03/2024 à 14:00 Rdv 12:00-14:00,44.9015003,-0.5163222,44.8022673,1.2140018
735454,Bassens (FR33),Essarts-en-bocage (FR85),25/03/2024 à 13:00,25/03/2024 à 16:30,44.9015003,-0.5163222,46.78605775,-1.2528102863462225
734204,Nantes (FR44),Fleury-mérogis (FR91),20/03/2024 à 09:00 Rdv 9:00-11:00,20/03/2024 à 14:30,47.2186371,-1.5541362,48.629965,2.3609313
738965,Pontoise (FR95),Fleury-mérogis (FR91),22/03/2024 à 10:00 Rdv 10:00-12:00,22/03/2024 à 16:00,49.0508845,2.1008067,48.629965,2.3609313
737803,Olivet (FR45),Fleury-mérogis (FR91),03/04/2024 à 15:00,04/04/2024 à 14:00,47.8650984,1.9015752,48.629965,2.3609313
738303,Poitiers (FR86),Fleury-mérogis (FR91),22/03/2024 à 14:00 Rdv 14:00-16:00,25/03/2024 à 09:00,46.5802596,0.340196,48.629965,2.3609313
734213,Rennes (FR35),Fleury-mérogis (FR91),15/04/2024 à 14:00 Rdv 14:00-16:00,16/04/2024 à 11:00,48.1113387,-1.6800198,48.629965,2.3609313
734196,Laval (FR53),Fleury-mérogis (FR91),22/03/2024 à 10:00 Rdv 10:00-12:00,22/03/2024 à 14:00,48.0706687,-0.7734022,48.629965,2.3609313
734194,Laval (FR53),Fleury-mérogis (FR91),26/03/2024 à 10:00 Rdv 10:00-12:00,26/03/2024 à 16:30,48.0706687,-0.7734022,48.629965,2.3609313
737701,Gidy (FR45),Flins-sur-seine (FR78),29/03/2024 à 12:00,29/03/2024 à 16:30,47.9899429,1.8368508,48.9623407,1.8684146
731853,Avrigny (FR60),Fontenay-sous-bois (FR94),28/03/2024 à 09:01,28/03/2024 à 12:00 Rdv 10:00-12:00,49.3817833,2.57932,48.8490721,2.4749347
738542,Illkirch graffenstaden (FR67),Forbach (FR57),21/03/2024 à 09:10,21/03/2024 à 14:20,48.5298611,7.7116218,49.1862822,6.8958562
737568,Chatenois (FR67),Forbach (FR57),27/03/2024 à 10:01,27/03/2024 à 15:02,48.272548,7.4013652,49.1862822,6.8958562
735402,Ungersheim (FR68),Forbach (FR57),20/03/2024 à 09:00 Rdv 9:00-11:00,20/03/2024 à 16:00,47.877868,7.304028,49.1862822,6.8958562
737908,Ambarès-et-lagrave (FR33),Franqueville saint pierre (FR76),25/03/2024 à 14:00,26/03/2024 à 17:00 Rdv 15:00-17:00,44.9259011,-0.4881846,49.4027,1.1825
738333,Aalst (BE93),Genk (BE36),25/03/2024 à 09:00 Rdv 9:00-11:00,25/03/2024 à 14:00,50.9383226,4.0392147,50.9654864,5.5001456
738686,La hulpe (BE13),Genk (BE36),25/03/2024 à 10:00 Rdv 10:00-12:00,25/03/2024 à 14:00,50.7313729,4.4893987,50.9654864,5.5001456
737954,Brugge (BE82),Genk (BE36),22/03/2024 à 13:45 Rdv 13:45-14:45,22/03/2024 à 16:45,0.0,0.0,50.9654864,5.5001456
736972,Watermaal-bosvoorde (BE11),Genk (BE36),21/03/2024 à 11:00,21/03/2024 à 14:30 Rdv 12:30-14:30,50.7981063,4.4176441,50.9654864,5.5001456
738513,Herent (BE30),Genk (BE36),25/03/2024 à 09:00 Rdv 9:00-11:00,25/03/2024 à 13:00,50.9124734,4.6517147625934285,50.9654864,5.5001456
738702,Eeklo (BE99),Gent (BE90),19/03/2024 à 09:00,19/03/2024 à 16:30,51.1910245,3.566534200312325,51.0538286,3.7250121
738650,Aalter (BE98),Gent (BE90),20/03/2024 à 09:00,20/03/2024 à 16:00,51.083894,3.4485192,51.0538286,3.7250121
737700,Flins-sur-seine (FR78),Gidy (FR45),29/03/2024 à 08:00,29/03/2024 à 12:00,48.9623407,1.8684146,47.9899429,1.8368508
736583,Chartres-de-bretagne (FR35),Guichen (FR35),28/03/2024 à 08:30,28/03/2024 à 12:00 Rdv 10:00-12:00,48.0432406,-1.7082369,47.9659271,-1.7970987
736929,Wavrin (FR59),Halluin (FR59),25/03/2024 à 08:30,25/03/2024 à 13:00 Rdv 11:00-13:00,50.570559,2.932545,50.7826693,3.1249234
738951,Saint-ail (FR54),Hambach (FR57),19/03/2024 à 08:15,19/03/2024 à 17:00 Rdv 15:00-17:00,49.1808501,5.9960901,49.0613593,7.0372308
736970,Marckolsheim (FR67),Heillecourt (FR54),20/03/2024 à 08:30,20/03/2024 à 15:00 Rdv 13:00-15:00,48.165441,7.5444161,48.6530512,6.1947541
738608,Lezo (ES20),Irun (ES20),19/03/2024 à 09:00,19/03/2024 à 16:00,43.3212392,-1.8996138,43.3383176,-1.7888095
739007,Caudry (FR59),Jardin (FR38),19/03/2024 à 17:00,21/03/2024 à 12:00 Rdv 10:00-12:00,0.0,0.0,0.0,0.0
738826,Hasselt (BE35),Kortenberg (BE30),25/03/2024 à 13:00,25/03/2024 à 15:45 Rdv 14:15-15:45,50.9303735,5.3378043,50.8953581,4.565683393303372
735767,Asse (BE17),Kruibeke (BE91),25/03/2024 à 10:00,25/03/2024 à 15:00,50.9094333,4.2015646,51.17625475,4.298036873275151
737109,Aubière (FR63),La chapelle-d\'aurec (FR43),03/04/2024 à 08:30,03/04/2024 à 12:00 Rdv 11:00-12:00,45.7512575,3.1144195,45.3355965,4.2072832
738972,Lambres-lez-douai (FR59),La madeleine (FR59),21/03/2024 à 08:15,21/03/2024 à 11:00 Rdv 9:15-11:00,0.0,0.0,50.654401,3.0733338
738757,Clarensac (FR30),La roche-de-glun (FR26),22/03/2024 à 15:30,23/03/2024 à 15:30,43.8266904,4.2176541,45.0133527,4.8443331
736382,Châteauneuf-de-gadagne (FR84),La roche-de-glun (FR26),25/03/2024 à 11:00 Rdv 11:00-13:00,25/03/2024 à 16:00,43.927603,4.9442687,45.0133527,4.8443331
738501,Puget (FR84),La roche-de-glun (FR26),03/04/2024 à 14:30,04/04/2024 à 16:30,43.7551285,5.2695519,45.0133527,4.8443331
737179,Bassens (FR33),La roche-sur-yon (FR85),27/03/2024 à 09:00,27/03/2024 à 12:00,44.9015003,-0.5163222,46.6705431,-1.4269698
738020,La norville (FR91),Lamorlaye (FR60),20/03/2024 à 08:30,20/03/2024 à 14:00 Rdv 12:00-14:00,48.5856753,2.2583893,0.0,0.0
737731,Aubagne (FR13),Lançon-provence (FR13),21/03/2024 à 09:00,21/03/2024 à 11:00,43.2924385,5.5703031,43.5913062,5.1258628
736936,Montpellier (FR34),Lattes (FR34),15/04/2024 à 07:30 Rdv 7:30-8:30,15/04/2024 à 09:00,43.6112422,3.8767337,43.5653993,3.9017114
734195,Villevêque (FR49),Laval (FR53),22/03/2024 à 08:30,22/03/2024 à 12:00 Rdv 10:00-12:00,47.5601026,-0.4230772,48.0706687,-0.7734022
734193,Villevêque (FR49),Laval (FR53),26/03/2024 à 08:30,26/03/2024 à 12:00 Rdv 10:00-12:00,47.5601026,-0.4230772,48.0706687,-0.7734022
738446,Bezannes (FR51),Laxou (FR54),25/03/2024 à 10:45 Rdv 10:45-12:00,25/03/2024 à 17:30 Rdv 16:00-17:30,0.0,0.0,0.0,0.0
737716,Bréal-sous-montfort (FR35),Le cellier (FR44),28/03/2024 à 13:00 Rdv 13:00-15:00,28/03/2024 à 16:30,0.0,0.0,47.3186735,-1.3465357
738310,Mauron (FR56),Le cellier (FR44),22/03/2024 à 12:00,22/03/2024 à 15:30,48.0829709,-2.2850738,47.3186735,-1.3465357
737669,Mauron (FR56),Le cellier (FR44),29/03/2024 à 09:00,29/03/2024 à 11:30,48.0829709,-2.2850738,47.3186735,-1.3465357
738590,Chartres-de-bretagne (FR35),Le relecq-kerhuon (FR29),28/03/2024 à 08:15,28/03/2024 à 12:30,48.0432406,-1.7082369,48.4075514,-4.3965573
738700,Forbach (FR57),Les alleuds (FR49),02/04/2024 à 09:55,03/04/2024 à 12:00 Rdv 10:00-12:00,49.1862822,6.8958562,47.31614075,-0.4151700234719045
736446,Locquignol (FR59),Lieu-saint-amand (FR59),25/03/2024 à 12:00 Rdv 12:00-14:00,25/03/2024 à 16:00,50.1987695,3.7169331,50.2729141,3.3461187
738282,Boisseuil (FR87),Limoges (FR87),04/04/2024 à 15:30,05/04/2024 à 15:30,45.7699722,1.3307721,45.8354243,1.2644847
737502,Clermont-ferrand (FR63),Limoges (FR87),19/03/2024 à 13:00 Rdv 13:00-15:00,20/03/2024 à 12:00,45.7774551,3.0819427,45.8354243,1.2644847
736581,Limoges (FR87),Limoges (FR87),22/03/2024 à 12:00 Rdv 12:00-14:00,22/03/2024 à 16:00,45.8354243,1.2644847,45.8354243,1.2644847
736580,Bassens (FR33),Limoges (FR87),22/03/2024 à 08:30,22/03/2024 à 14:00 Rdv 12:00-14:00,44.9015003,-0.5163222,45.8354243,1.2644847
736445,Wavrin (FR59),Locquignol (FR59),25/03/2024 à 08:30,25/03/2024 à 14:00 Rdv 12:00-14:00,50.570559,2.932545,50.1987695,3.7169331
737881,Nantes (FR44),Luisant (FR28),20/03/2024 à 12:30 Rdv 12:30-14:30,20/03/2024 à 20:00 Rdv 18:00-20:00,47.2186371,-1.5541362,48.4231,1.46835
736295,Orvault (FR44),Luçon (FR85),21/03/2024 à 09:30 Rdv 9:30-10:30,21/03/2024 à 14:00,-1.6194319725,47.2511912196,15.5919971,120.73967457219264
737717,Magny-en-vexin (FR95),Marguerittes (FR30),19/03/2024 à 08:00,19/03/2024 à 14:00 Rdv 12:00-14:00,49.1554403,1.7864359,43.8629,4.45426
738595,Marckolsheim (FR67),Marly (FR57),21/03/2024 à 08:30,21/03/2024 à 16:00 Rdv 14:00-16:00,48.165441,7.5444161,50.3500747,3.5435909
735595,La farlede (FR83),Marseille (FR13),28/03/2024 à 08:30,28/03/2024 à 10:00,43.1597,6.04317,43.2961743,5.3699525
737552,Guyancourt (FR78),Marseille (FR13),01/04/2024 à 09:30 Rdv 9:30-10:30,02/04/2024 à 11:00,48.7709414,2.0706084,43.2961743,5.3699525
738592,Nice (FR06),Marseille (FR13),22/03/2024 à 08:00,22/03/2024 à 12:30,43.7009358,7.2683912,43.2961743,5.3699525
738277,Bassens (FR33),Martillac (FR33),20/03/2024 à 08:30,20/03/2024 à 12:00 Rdv 10:00-12:00,44.9015003,-0.5163222,44.7141704,-0.5422302
736520,Bassens (FR33),Martillac (FR33),20/03/2024 à 08:30,20/03/2024 à 12:00 Rdv 10:00-12:00,44.9015003,-0.5163222,44.7141704,-0.5422302
736505,Bassens (FR33),Martillac (FR33),19/03/2024 à 08:30,19/03/2024 à 12:00 Rdv 10:00-12:00,44.9015003,-0.5163222,44.7141704,-0.5422302
736455,Bassens (FR33),Martillac (FR33),20/03/2024 à 08:30,20/03/2024 à 12:30 Rdv 10:30-12:30,44.9015003,-0.5163222,44.7141704,-0.5422302
738309,Le cellier (FR44),Mauron (FR56),22/03/2024 à 09:00,22/03/2024 à 12:00,47.3186735,-1.3465357,48.0829709,-2.2850738
738507,Aartselaar (BE26),Mechelen (BE28),19/03/2024 à 11:15 Rdv 11:15-13:15,19/03/2024 à 15:15 Rdv 13:15-15:15,51.133297,4.3870241,51.0281381,4.4803453
736362,Salon de provence (FR13),Meyreuil (FR13),08/04/2024 à 09:00,08/04/2024 à 15:00,43.6405237,5.0980225,43.4867359,5.4952155
738936,Coulounieix-chamiers (FR24),Migné-auxances (FR86),21/03/2024 à 09:30,21/03/2024 à 14:30,45.1872222,0.6922222,46.6267464,0.3113812
737724,Reims (FR51),Mitry-mory (FR77),20/03/2024 à 10:00 Rdv 10:00-12:00,20/03/2024 à 16:00,49.2577886,4.031926,48.9839674,2.6183971
736621,Champlan (FR91),Mitry-mory (FR77),19/03/2024 à 15:00,20/03/2024 à 15:00,48.7073405,2.2758626,48.9839674,2.6183971
737823,Cormontreuil (FR51),Mitry-mory (FR77),04/04/2024 à 10:00,04/04/2024 à 15:00,0.0,0.0,48.9839674,2.6183971
738021,Lamorlaye (FR60),Mitry-mory (FR77),20/03/2024 à 12:00 Rdv 12:00-14:00,20/03/2024 à 16:00,0.0,0.0,48.9839674,2.6183971
738864,Meythet (FR74),Moirans (FR38),18/03/2024 à 08:30 Rdv 8:30-9:30,18/03/2024 à 12:45 Rdv 10:45-12:45,45.919176750000005,6.095924491965651,45.3262643,5.5647186
738845,Écrouves (FR54),Molsheim (FR67),22/03/2024 à 14:00 Rdv 14:00-16:00,23/03/2024 à 12:00,48.6794767,5.8399328,48.5419351,7.4924679
738002,La riche (FR37),Mont-près-chambord (FR41),22/03/2024 à 08:30,22/03/2024 à 12:00 Rdv 10:00-12:00,47.3881295,0.6572824,47.5611844,1.4550818
734963,Bassens (FR33),Montauban (FR82),20/03/2024 à 08:30,20/03/2024 à 14:00 Rdv 12:00-14:00,44.9015003,-0.5163222,44.0175835,1.3549991
738074,Paris (FR75),Montauban-de-bretagne (FR35),20/03/2024 à 09:00 Rdv 9:00-11:00,20/03/2024 à 16:00,48.8534951,2.3483915,48.1998838,-2.0462319
738753,Noyal-sur-vilaine (FR35),Montauban-de-bretagne (FR35),25/03/2024 à 09:00,25/03/2024 à 16:00,48.1140789,-1.5234735,48.1998838,-2.0462319
737400,Antony (FR92),Montauban-de-bretagne (FR35),26/03/2024 à 10:00 Rdv 10:00-12:00,26/03/2024 à 16:00,48.753554,2.2959423,48.1998838,-2.0462319
737825,Noyal-sur-vilaine (FR35),Montauban-de-bretagne (FR35),22/03/2024 à 15:00 Rdv 15:00-17:00,22/03/2024 à 18:00,48.1140789,-1.5234735,48.1998838,-2.0462319
738724,Villennes-sur-seine (FR78),Montauban-de-bretagne (FR35),21/03/2024 à 09:00 Rdv 9:00-11:00,21/03/2024 à 15:00,48.9404491,1.9987648,48.1998838,-2.0462319
738029,Bretigny-sur-orge (FR91),Montauban-de-bretagne (FR35),20/03/2024 à 10:00 Rdv 10:00-12:00,20/03/2024 à 16:00,48.6099887,2.3075288,48.1998838,-2.0462319
738712,Boulogne billancourt (FR92),Montauban-de-bretagne (FR35),21/03/2024 à 14:00 Rdv 14:00-16:00,22/03/2024 à 12:00,48.8356649,2.240206,48.1998838,-2.0462319
738733,Treillieres (FR44),Montauban-de-bretagne (FR35),25/03/2024 à 09:00,25/03/2024 à 16:00,47.3309103,-1.6240815,48.1998838,-2.0462319
738765,Trémuson (FR22),Montoir-de-bretagne (FR44),25/03/2024 à 14:30,25/03/2024 à 17:15,48.5234929,-2.8492138,47.3285909,-2.1543171
737661,Nantes (FR44),Montoir-de-bretagne (FR44),22/03/2024 à 11:30,22/03/2024 à 15:00,47.2186371,-1.5541362,47.3285909,-2.1543171
738627,Quimper (FR29),Montoir-de-bretagne (FR44),22/03/2024 à 14:00 Rdv 14:00-16:00,22/03/2024 à 16:30,47.9960325,-4.1024782,47.3285909,-2.1543171
736119,Miramas (FR13),Montpellier (FR34),10/04/2024 à 08:30,10/04/2024 à 11:00 Rdv 9:00-11:00,43.582733,5.0025809,43.6112422,3.8767337
736937,Lattes (FR34),Montpellier (FR34),15/04/2024 à 15:30 Rdv 15:30-16:30,15/04/2024 à 17:00,43.5653993,3.9017114,43.6112422,3.8767337
736111,Miramas (FR13),Montpellier (FR34),10/04/2024 à 08:30,10/04/2024 à 16:00 Rdv 14:00-16:00,43.582733,5.0025809,43.6112422,3.8767337
738566,Donzère (FR26),Montélimar (FR26),21/03/2024 à 08:00,22/03/2024 à 13:00,44.4442014,4.7073439,44.5579391,4.750318
738153,Donzère (FR26),Montélimar (FR26),25/03/2024 à 08:00,25/03/2024 à 12:00,44.4442014,4.7073439,44.5579391,4.750318
738575,Donzère (FR26),Montélimar (FR26),21/03/2024 à 12:00,22/03/2024 à 18:00,44.4442014,4.7073439,44.5579391,4.750318
738499,Mechelen (BE28),Mortsel (BE26),19/03/2024 à 11:15 Rdv 11:15-13:15,19/03/2024 à 15:15 Rdv 13:15-15:15,51.0281381,4.4803453,51.1704119,4.4566996
736148,Saint-ail (FR54),Mulhouse (FR68),25/03/2024 à 08:15,25/03/2024 à 12:00,49.1808501,5.9960901,47.7467233,7.3389937
737466,Toulouse (FR31),Mur-de-barrez (FR12),25/03/2024 à 15:00,26/03/2024 à 15:00 Rdv 14:00-15:00,43.6044622,1.4442469,44.8416264,2.6635471
738524,Orvault (FR44),Mérignac (FR33),27/03/2024 à 10:00 Rdv 10:00-11:00,27/03/2024 à 17:00 Rdv 15:00-17:00,-1.6194319725,47.2511912196,44.842168,-0.6469022
735932,Le bouscat (FR33),Mérignac (FR33),26/03/2024 à 09:00,26/03/2024 à 12:00 Rdv 10:00-12:00,44.8661755,-0.5992399,44.842168,-0.6469022
738959,Saint-ail (FR54),Nancy (FR54),21/03/2024 à 08:15,21/03/2024 à 11:45 Rdv 9:45-11:45,49.1808501,5.9960901,48.6937223,6.1834097
737879,Luisant (FR28),Nantes (FR44),20/03/2024 à 09:15 Rdv 9:15-10:15,20/03/2024 à 14:30 Rdv 12:30-14:30,48.4231,1.46835,47.2186371,-1.5541362
738735,Niort (FR79),Nantes (FR44),26/03/2024 à 08:30 Rdv 8:30-9:30,26/03/2024 à 12:00 Rdv 11:00-12:00,46.3239233,-0.4646064,47.2186371,-1.5541362
738287,Niort (FR79),Nantes (FR44),25/03/2024 à 08:30 Rdv 8:30-9:30,25/03/2024 à 12:00 Rdv 11:00-12:00,46.3239233,-0.4646064,47.2186371,-1.5541362
734203,Wavrin (FR59),Nantes (FR44),19/03/2024 à 10:00 Rdv 10:00-15:00,20/03/2024 à 11:00 Rdv 9:00-11:00,50.570559,2.932545,47.2186371,-1.5541362
737660,Montoir-de-bretagne (FR44),Nantes (FR44),22/03/2024 à 08:00,22/03/2024 à 11:30,47.3285909,-2.1543171,47.2186371,-1.5541362
737934,Bassens (FR33),Neuvic (FR24),20/03/2024 à 09:00,20/03/2024 à 12:00 Rdv 10:30-12:00,44.9015003,-0.5163222,45.1006366,0.469149
737840,Bourgbarré (FR35),Neuvy (FR41),21/03/2024 à 09:00 Rdv 9:00-11:00,21/03/2024 à 16:00 Rdv 14:00-16:00,0.0,0.0,48.7469304,3.5177618
738593,Marseille (FR13),Nice (FR06),22/03/2024 à 12:30,22/03/2024 à 16:00,43.2961743,5.3699525,43.7009358,7.2683912
738758,Rivery (FR80),Nieppe (FR59),22/03/2024 à 09:15,22/03/2024 à 12:00,49.9005828,2.3216925,50.703612,2.8403065
738424,Ambarès-et-lagrave (FR33),Nieul le dolent (FR85),21/03/2024 à 10:00,21/03/2024 à 16:00 Rdv 15:00-16:00,44.9259011,-0.4881846,46.5745648,-1.5077617
738736,Nantes (FR44),Niort (FR79),26/03/2024 à 11:00 Rdv 11:00-12:00,26/03/2024 à 16:00 Rdv 15:00-16:00,47.2186371,-1.5541362,46.3239233,-0.4646064
738288,Nantes (FR44),Niort (FR79),25/03/2024 à 11:00 Rdv 11:00-12:00,25/03/2024 à 16:45 Rdv 15:45-16:45,47.2186371,-1.5541362,46.3239233,-0.4646064
738652,Braine-le-château (BE14),Nivelles (BE14),19/03/2024 à 09:00,19/03/2024 à 11:00,50.6827864,4.2669864,50.5976885,4.3235854
737391,La norville (FR91),Normanville (FR27),08/04/2024 à 08:30,08/04/2024 à 12:00 Rdv 10:00-12:00,48.5856753,2.2583893,49.6948768,0.5941406
738581,Trappes (FR78),Nîmes (FR30),26/03/2024 à 10:00 Rdv 10:00-12:00,27/03/2024 à 10:00,48.7760957,1.9988356,43.8374249,4.3600687
738885,Salon-de-provence (FR13),Nîmes (FR30),21/03/2024 à 14:00,21/03/2024 à 16:30,43.6405237,5.0980225,43.8374249,4.3600687
737802,Berck (FR62),Olivet (FR45),03/04/2024 à 09:30,03/04/2024 à 15:00,0.0,0.0,47.8650984,1.9015752
738525,Mérignac (FR33),Orvault (FR44),27/03/2024 à 15:00 Rdv 15:00-17:00,28/03/2024 à 15:00,44.842168,-0.6469022,-1.6194319725,47.2511912196
738391,Saubusse (FR40),Orvault (FR44),19/03/2024 à 11:30,20/03/2024 à 11:30,43.6569623,-1.1857007,-1.6194319725,47.2511912196
737564,Brive-la-gaillarde (FR19),Orvault (FR44),20/03/2024 à 14:00,22/03/2024 à 14:00,45.1584982,1.5332389,-1.6194319725,47.2511912196
738354,Bourges (FR18),Parcay meslay (FR37),22/03/2024 à 14:00 Rdv 14:00-16:00,22/03/2024 à 17:00,47.0811658,2.399125,47.4413885,0.7456752
738270,Sambin (FR41),Parçay-meslay (FR37),28/03/2024 à 15:00 Rdv 15:00-16:00,28/03/2024 à 17:00,47.4384429,1.2959039,47.4413885,0.7456752
738690,Orvault (FR44),Pessac (FR33),19/03/2024 à 10:00 Rdv 10:00-12:00,19/03/2024 à 16:00 Rdv 14:00-16:00,-1.6194319725,47.2511912196,44.805615,-0.6308396
732714,Montauban-de-bretagne (FR35),Pleudihen-sur-rance (FR22),15/04/2024 à 09:00,15/04/2024 à 11:00 Rdv 9:00-11:00,48.1998838,-2.0462319,48.5102781,-1.9510009
738647,Montoir-de-bretagne (FR44),Pleurtuit (FR35),22/03/2024 à 08:00,22/03/2024 à 11:30,47.3285909,-2.1543171,48.5815,-2.05912
737458,Blain (FR44),Poitiers (FR86),22/03/2024 à 14:00 Rdv 14:00-16:00,01/04/2024 à 17:00,47.4755536,-1.7643647,46.5802596,0.340196
738302,Castelnau-d'estrétefonds (FR31),Poitiers (FR86),22/03/2024 à 08:30,22/03/2024 à 16:00 Rdv 14:00-16:00,43.78251,1.3590892,46.5802596,0.340196
738738,Avrigny (FR60),Pontfaverger-moronvilliers (FR51),02/04/2024 à 09:00,02/04/2024 à 12:00 Rdv 10:00-12:00,49.3817833,2.57932,49.2973636,4.3174486
738964,Avrigny (FR60),Pontoise (FR95),22/03/2024 à 08:45,22/03/2024 à 12:00 Rdv 10:00-12:00,49.3817833,2.57932,49.0508845,2.1008067
738984,Calonge de segarra (ES08),Puertollano (ES13),19/03/2024 à 09:00,20/03/2024 à 17:00,41.7642502,1.4820028,38.6852161,-4.1111749
738500,Rivery (FR80),Puget (FR84),02/04/2024 à 15:00,03/04/2024 à 14:30,49.9005828,2.3216925,43.7551285,5.2695519
734379,Villevêque (FR49),Périgueux (FR24),19/03/2024 à 08:30,19/03/2024 à 16:00 Rdv 14:00-16:00,47.5601026,-0.4230772,45.1909365,0.7184407
738625,Montoir-de-bretagne (FR44),Quimper (FR29),22/03/2024 à 08:00,22/03/2024 à 16:00 Rdv 14:00-16:00,47.3285909,-2.1543171,47.9960325,-4.1024782
738583,Martin-eglise (FR76),Quincampoix (FR76),03/04/2024 à 09:00,03/04/2024 à 11:30,49.9013442,1.1402861,49.521,1.17464
738586,Martin-eglise (FR76),Quincampoix (FR76),03/04/2024 à 09:00,03/04/2024 à 11:30,49.9013442,1.1402861,49.521,1.17464
738588,Martin-eglise (FR76),Quincampoix (FR76),03/04/2024 à 09:00,03/04/2024 à 11:30,49.9013442,1.1402861,49.521,1.17464
736217,Saint-pal-de-mons (FR43),Quincieux (FR69),28/03/2024 à 09:00 Rdv 9:00-11:00,28/03/2024 à 14:00,45.2462124,4.2742369,45.90900965105747,4.762067991264464
736222,Saint-pal-de-mons (FR43),Quincieux (FR69),28/03/2024 à 09:00 Rdv 9:00-11:00,28/03/2024 à 14:00,45.2462124,4.2742369,45.90900965105747,4.762067991264464
737723,Nanteuil-le-haudouin (FR60),Reims (FR51),20/03/2024 à 08:30,20/03/2024 à 12:00 Rdv 10:00-12:00,49.141185,2.8089282,49.2577886,4.031926
738956,Saint-ail (FR54),Reims (FR51),21/03/2024 à 08:15,21/03/2024 à 12:30 Rdv 10:30-12:30,49.1808501,5.9960901,49.2577886,4.031926
738498,Chartres-de-bretagne (FR35),Rennes (FR35),19/03/2024 à 09:00,19/03/2024 à 11:00 Rdv 9:00-11:00,48.0432406,-1.7082369,48.1113387,-1.6800198
734212,Villevêque (FR49),Rennes (FR35),15/04/2024 à 08:30,15/04/2024 à 16:00 Rdv 14:00-16:00,47.5601026,-0.4230772,48.1113387,-1.6800198
738961,Saint-ail (FR54),Rethel (FR08),21/03/2024 à 08:15,21/03/2024 à 12:45 Rdv 10:45-12:45,49.1808501,5.9960901,49.5091447,4.3666467
733900,Montoir-de-bretagne (FR44),Rezé (FR44),22/03/2024 à 08:00,22/03/2024 à 12:00,47.3285909,-2.1543171,47.1905456,-1.5695287
738603,Toulouse (FR31),Rivesaltes (FR66),22/03/2024 à 14:00 Rdv 14:00-15:00,22/03/2024 à 16:45,43.6044622,1.4442469,42.7683568,2.8709277
738127,Seynod (FR74),Rungis (FR94),21/03/2024 à 09:00 Rdv 9:00-11:00,21/03/2024 à 16:00 Rdv 14:30-16:00,45.8880398,6.0992785,48.7484048,2.3472665
738813,Saint-brevin-les-pins (FR44),Saint-aignan-grandlieu (FR44),27/03/2024 à 10:00 Rdv 10:00-12:00,27/03/2024 à 16:00,47.2473358,-2.1677298,47.124601,-1.630937
738952,Hambach (FR57),Saint-ail (FR54),19/03/2024 à 15:00 Rdv 15:00-17:00,20/03/2024 à 16:15,49.0613593,7.0372308,49.1808501,5.9960901
736149,Mulhouse (FR68),Saint-ail (FR54),25/03/2024 à 12:00,25/03/2024 à 16:30,47.7467233,7.3389937,49.1808501,5.9960901
738812,Montoir-de-bretagne (FR44),Saint-brevin-les-pins (FR44),27/03/2024 à 08:30,27/03/2024 à 12:00 Rdv 10:00-12:00,47.3285909,-2.1543171,47.2473358,-2.1677298
735360,Castelnau-d\'estrétefonds (FR31),Saint-cernin-de-larche (FR19),02/04/2024 à 09:00,02/04/2024 à 12:00 Rdv 10:00-12:00,43.78251,1.3590892,45.1030652,1.4144957
738227,Seynod (FR74),Saint-etienne (FR42),27/03/2024 à 10:30 Rdv 10:30-11:30,27/03/2024 à 15:00 Rdv 14:00-15:00,45.8880398,6.0992785,45.4401467,4.3873058
736687,Champniers (FR16),Saint-jean-d\'illac (FR33),25/03/2024 à 08:30,25/03/2024 à 11:30,45.7145725,0.2050544,44.8101856,-0.7815257
737361,Carrières-sous-poissy (FR78),Saint-laurent-nouan (FR41),19/03/2024 à 08:30,19/03/2024 à 14:00 Rdv 12:00-14:00,48.9437694,2.0341747,47.7169881,1.6116899
738914,Tarnos (FR40),Saint-paul-lès-dax (FR40),22/03/2024 à 08:00,22/03/2024 à 10:00,43.5405622,-1.4611915,43.7253162,-1.0515491
738359,Butry-sur-oise (FR95),Saint-quentin (FR02),22/03/2024 à 14:00,22/03/2024 à 16:00 Rdv 14:00-16:00,49.0856723,2.1979556,49.8465253,3.2876843
738051,Chaponost (FR69),Saint-vulbas (FR01),25/03/2024 à 11:00 Rdv 11:00-13:00,25/03/2024 à 16:00,0.0,0.0,45.8306,5.28959
738331,Limoges (FR87),Saintes (FR17),20/03/2024 à 09:30 Rdv 9:30-10:30,20/03/2024 à 14:30,45.8354243,1.2644847,45.7460663,-0.6300671
736341,Miramas (FR13),Salon de provence (FR13),08/04/2024 à 08:00,08/04/2024 à 11:00 Rdv 9:00-11:00,43.582733,5.0025809,43.6405237,5.0980225
738266,Avrigny (FR60),Sambin (FR41),28/03/2024 à 10:00,28/03/2024 à 16:00 Rdv 15:00-16:00,49.3817833,2.57932,47.4384429,1.2959039
738678,Santa perpètua de mogoda (ES08),Sant joan de vilatorrada (ES08),20/03/2024 à 09:00,20/03/2024 à 12:00 Rdv 10:00-12:00,41.5328106,2.1823309,41.7422073,1.803625
738390,Orvault (FR44),Saubusse (FR40),18/03/2024 à 17:00 Rdv 17:00-19:00,19/03/2024 à 11:30,-1.6194319725,47.2511912196,43.6569623,-1.1857007
738128,Rungis (FR94),Seynod (FR74),21/03/2024 à 14:30 Rdv 14:30-16:00,22/03/2024 à 15:00,48.7484048,2.3472665,45.8880398,6.0992785
738228,Saint-etienne (FR42),Seynod (FR74),27/03/2024 à 14:00 Rdv 14:00-15:00,27/03/2024 à 17:30,45.4401467,4.3873058,45.8880398,6.0992785
738917,Wilrijk (BE26),Sint-katelijne-waver (BE28),22/03/2024 à 08:30,22/03/2024 à 11:30 Rdv 9:30-11:30,51.1700864,4.3942577,51.0699542,4.532238
732473,Watermael-boitsfort (BE11),Sint-niklaas (BE91),08/03/2024 à 09:30,20/03/2024 à 15:30,50.7981063,4.4176441,51.1646685,4.1395124
738601,Villeurbanne (FR69),St priest (FR69),25/03/2024 à 14:00 Rdv 14:00-16:00,25/03/2024 à 16:30,45.7733573,4.8868454,45.699911230631024,4.940050948355273
738585,Saint-georges-d'esperanche (FR38),St priest (FR69),20/03/2024 à 09:00,20/03/2024 à 17:00,45.5574829,5.0808076,45.699911230631024,4.940050948355273
734960,Bassens (FR33),Tarbes (FR65),20/03/2024 à 09:30,20/03/2024 à 14:00 Rdv 12:00-14:00,44.9015003,-0.5163222,43.232858,781021.0
737129,Tarnos (FR40),Tartas (FR40),20/03/2024 à 08:00,20/03/2024 à 11:00,43.5405622,-1.4611915,43.8323121,-0.8095934
738374,Montoir-de-bretagne (FR44),Theix-noyalo (FR56),22/03/2024 à 08:00,22/03/2024 à 12:00 Rdv 10:00-12:00,47.3285909,-2.1543171,47.63049455,-2.637546715043245
738602,Nice (FR06),Toulouse (FR31),22/03/2024 à 08:00,22/03/2024 à 15:00 Rdv 14:00-15:00,43.7009358,7.2683912,43.6044622,1.4442469
738580,Nîmes (FR30),Trappes (FR78),25/03/2024 à 09:00,26/03/2024 à 12:00 Rdv 10:00-12:00,43.8374249,4.3600687,48.7760957,1.9988356
738764,Montoir-de-bretagne (FR44),Trémuson (FR22),25/03/2024 à 08:00,25/03/2024 à 14:30,47.3285909,-2.1543171,48.5234929,-2.8492138
737836,Bourges (FR18),Val-fouzon (FR36),21/03/2024 à 08:00,21/03/2024 à 10:00,47.0811658,2.399125,47.20631435,1.615102318761384
737801,Ozoir-la-ferrière (FR77),Valenton (FR94),01/04/2024 à 09:00,01/04/2024 à 11:30,48.7620904,2.6719421,48.7443189,2.4699741
737575,Avrigny (FR60),Valff (FR67),25/03/2024 à 09:00,25/03/2024 à 17:00 Rdv 15:00-17:00,49.3817833,2.57932,48.4222377,7.5227937
738792,Carbajosa de la sagrada (ES37),Valladolid (ES47),19/03/2024 à 09:00,19/03/2024 à 16:00,40.9329307,-5.6508263,41.6521328,-4.728562
738430,Orvault (FR44),Vallet (FR44),18/03/2024 à 10:00 Rdv 10:00-11:30,18/03/2024 à 16:00 Rdv 14:00-16:00,-1.6194319725,47.2511912196,47.1610036,-1.2657431
734992,Le mans (FR72),Varaville (FR14),21/03/2024 à 10:45,21/03/2024 à 18:00 Rdv 17:00-18:00,48.0073849,0.1967849,49.253386,-0.1582652
736930,Halluin (FR59),Vendin-lès-béthune (FR62),25/03/2024 à 11:00 Rdv 11:00-13:00,25/03/2024 à 16:00,50.7826693,3.1249234,50.548777,2.6008182
737815,Wambrechies (FR59),Villeneuve-d\'ascq (FR59),03/04/2024 à 15:00,03/04/2024 à 16:30,50.6861944,3.0521806,50.6193174,3.1314002
738778,Avion (FR62),Villeneuve-d\'ascq (FR59),22/03/2024 à 10:45,22/03/2024 à 14:00 Rdv 12:00-14:00,50.4126128,2.8343891,50.6193174,3.1314002
738716,Avrigny (FR60),Villennes-sur-seine (FR78),21/03/2024 à 09:00,21/03/2024 à 11:00 Rdv 9:00-11:00,49.3817833,2.57932,48.9404491,1.9987648
737921,Miramas (FR13),Villeurbanne (FR69),25/03/2024 à 10:00,25/03/2024 à 16:00 Rdv 14:00-16:00,43.582733,5.0025809,45.7733573,4.8868454
735591,Marignier (FR74),Vénissieux (FR69),27/03/2024 à 09:00,27/03/2024 à 11:30,46.0903808,6.4992902,45.6977109,4.8855966
737814,Berck (FR62),Wambrechies (FR59),03/04/2024 à 09:30,03/04/2024 à 15:00,0.0,0.0,50.6861944,3.0521806
737674,Thièvres (FR62),Wavrin (FR59),20/03/2024 à 14:00 Rdv 14:00-15:00,20/03/2024 à 16:30 Rdv 15:30-16:30,50.1301182,2.4535901,50.570559,2.932545
738918,Sint-katelijne-waver (BE28),Wilrijk (BE26),22/03/2024 à 09:30 Rdv 9:30-11:30,25/03/2024 à 09:30,51.0699542,4.532238,51.1700864,4.3942577
737952,Rivery (FR80),Wintzenheim (FR68),01/04/2024 à 16:00,02/04/2024 à 10:00,49.9005828,2.3216925,48.0724515,7.2925545
738741,Mechelen (BE28),Zwijndrecht (BE20),21/03/2024 à 08:00,21/03/2024 à 16:00,51.0281381,4.4803453,51.8162227,4.6405166
738739,Mechelen (BE28),Zwijndrecht (BE20),28/03/2024 à 08:00,28/03/2024 à 16:00,51.0281381,4.4803453,51.8162227,4.6405166
738754,Zwijndrecht (BE20),Zwijndrecht (BE20),19/03/2024 à 09:00 Rdv 9:00-11:00,19/03/2024 à 12:00 Rdv 11:00-12:00,51.8162227,4.6405166,51.8162227,4.6405166
738760,Zwijndrecht (BE20),Zwijndrecht (BE20),19/03/2024 à 09:30 Rdv 9:30-11:30,19/03/2024 à 12:30,51.8162227,4.6405166,51.8162227,4.6405166
738734,Zwijndrecht (BE20),Zwijndrecht (BE20),19/03/2024 à 09:45 Rdv 9:45-11:15,19/03/2024 à 12:30,51.8162227,4.6405166,51.8162227,4.6405166
733982,Zwijndrecht (BE20),Zwijndrecht (BE20),04/04/2024 à 09:00 Rdv 9:00-10:00,04/04/2024 à 12:00 Rdv 11:00-12:00,51.8162227,4.6405166,51.8162227,4.6405166
738844,Carrières-sous-poissy (FR78),Écrouves (FR54),22/03/2024 à 09:00,22/03/2024 à 16:00 Rdv 14:00-16:00,48.9437694,2.0341747,48.6794767,5.8399328
