IDtrajet,Ville de Départ,Ville d'arrivée,A partir du,Jusqu'au,Départ_Latitude,Départ_Longitude,Arrivé_Latitude,Arrivé_Longitude
736528,Pinoso (ES03),Alacant (ES03),14/03/2024 à 12:00 Rdv 12:00-13:00,14/03/2024 à 16:00,38.4021056,-1.041617,38.3436365,-0.4881708
736320,Murcia (ES30),Alicante-alacant (ES03),15/03/2024 à 12:00 Rdv 12:00-13:00,15/03/2024 à 14:30,37.9923795,-1.1305431,38.3436365,-0.4881708
735856,Floirac (FR33),Ambarès-et-lagrave (FR33),14/03/2024 à 09:00 Rdv 9:00-11:00,14/03/2024 à 14:00,0.0,0.0,44.9259011,-0.4881846
735809,Mérignac (FR33),Ambarès-et-lagrave (FR33),19/03/2024 à 10:00 Rdv 10:00-12:00,19/03/2024 à 16:00,44.842168,-0.6469022,44.9259011,-0.4881846
735933,Mérignac (FR33),Ambarès-et-lagrave (FR33),26/03/2024 à 10:00 Rdv 10:00-12:00,26/03/2024 à 12:00,44.842168,-0.6469022,44.9259011,-0.4881846
736705,Mundolsheim (FR67),Ambérieu-en-bugey (FR01),15/03/2024 à 12:00 Rdv 12:00-14:00,18/03/2024 à 12:00,48.6416216,7.7150066,45.9584309,5.3595099
736641,Julienas (FR69),Ambérieu-en-bugey (FR01),20/03/2024 à 13:00 Rdv 13:00-15:00,20/03/2024 à 16:00,46.2347371,4.7114718,45.9584309,5.3595099
734065,Mende (FR48),Ambérieu-en-bugey (FR01),11/04/2024 à 10:00 Rdv 10:00-12:00,11/04/2024 à 16:00,44.5180226,3.4991057,45.9584309,5.3595099
736118,Toulon (FR83),Ambérieu-en-bugey (FR01),18/03/2024 à 11:30 Rdv 11:30-13:30,18/03/2024 à 16:00,43.13384507846755,5.930004113739942,45.9584309,5.3595099
735453,Montbonnot saint martin (FR38),Ambérieu-en-bugey (FR01),01/04/2024 à 13:00 Rdv 13:00-15:00,01/04/2024 à 17:00,45.2264498,5.80266,45.9584309,5.3595099
733677,La louvière (BE71),Antwerpen (BE20),11/03/2024 à 09:00,15/03/2024 à 15:00,50.4791337,4.161348292428827,51.2211097,4.3997081
734701,Leuven (BE30),Antwerpen (BE20),11/03/2024 à 09:00,14/03/2024 à 15:00,50.879202,4.7011675,51.2211097,4.3997081
736774,Anderlecht (BE10),Antwerpen (BE20),18/03/2024 à 09:00,18/03/2024 à 15:00,50.8390983,4.3296526,51.2211097,4.3997081
736603,Seraing (BE41),Antwerpen (BE20),15/03/2024 à 09:00,15/03/2024 à 15:00,50.6152381,5.5089437,51.2211097,4.3997081
729018,Herve (BE46),Antwerpen (BE20),11/03/2024 à 09:00,18/03/2024 à 15:00,50.63916,5.7931012,51.2211097,4.3997081
736626,Waterloo (BE14),Antwerpen (BE20),15/03/2024 à 09:00,15/03/2024 à 15:00,42.498275,-92.3328743,51.2211097,4.3997081
733678,Seraing (BE41),Antwerpen (BE20),11/03/2024 à 09:00,15/03/2024 à 15:00,50.6152381,5.5089437,51.2211097,4.3997081
736600,Seraing (BE41),Antwerpen (BE20),15/03/2024 à 09:00,15/03/2024 à 15:00,50.6152381,5.5089437,51.2211097,4.3997081
733637,Asse (BE17),Antwerpen (BE20),12/03/2024 à 09:00,15/03/2024 à 15:00,50.9094333,4.2015646,51.2211097,4.3997081
736244,Cran-gevrier (FR74),Archamps (FR74),18/03/2024 à 09:00,18/03/2024 à 11:00 Rdv 9:00-11:00,45.9079102,6.106538,46.1354538,6.1332458
736856,Seseña (ES45),Arroyo de la encomienda (ES47),14/03/2024 à 15:00 Rdv 15:00-17:00,14/03/2024 à 20:00 Rdv 18:00-20:00,40.1048269,-3.6963093,0.0,0.0
736694,Massy (FR91),Aulnay-sous-bois (FR93),14/03/2024 à 11:00,15/03/2024 à 13:00,49.6902106,1.399492,48.934231,2.499789
736637,Auneau (FR28),Aurillac (FR15),18/03/2024 à 10:00 Rdv 10:00-15:00,19/03/2024 à 11:00 Rdv 9:00-11:00,48.4705667,1.7714868478474783,44.9285441,2.4433101
736632,Salamanca (ES37),Azuqueca de henares (ES19),14/03/2024 à 14:30 Rdv 14:30-15:30,14/03/2024 à 17:45,40.9651572,-5.6640182,40.5683808,-3.2627134
736189,Arras (FR62),Bailly-romainvilliers (FR77),22/03/2024 à 09:00,22/03/2024 à 11:00,50.290277,2.776273,2.8247398,48.8471425
736240,Toulouse (FR31),Balma (FR31),18/03/2024 à 10:00,18/03/2024 à 16:00 Rdv 15:00-16:00,43.6044622,1.4442469,43.6259022,1.4853573
736871,Sant joan despí (ES08),Barcelona (ES08),14/03/2024 à 07:00,14/03/2024 à 12:45 Rdv 11:45-12:45,0.0,0.0,0.0,0.0
736225,Gradignan (FR33),Bassens (FR33),21/03/2024 à 12:00 Rdv 12:00-14:00,21/03/2024 à 14:15,44.7739701,-0.613907,44.9015003,-0.5163222
736614,Le chateau d'oleron (FR17),Bassens (FR33),24/04/2024 à 09:00,24/04/2024 à 11:30,45.8866143,-1.1953301,44.9015003,-0.5163222
736546,Nice (FR06),Baume-les-dames (FR25)      2,19/03/2024 à 14:30,20/03/2024 à 12:00 Rdv 8:30-12:00,43.7009358,7.2683912,0.0,0.0
730034,Avrigny (FR60),Bernay (FR27),14/03/2024 à 09:00,14/03/2024 à 16:00 Rdv 14:00-16:00,49.3817833,2.57932,0.0,0.0
736734,Tarnos (FR40),Bidart (FR64),19/03/2024 à 08:00,19/03/2024 à 16:00 Rdv 14:00-16:00,43.5405622,-1.4611915,43.4391702,-1.5898909
736743,Illzach (FR68),Biltzheim (FR68),02/04/2024 à 09:00,02/04/2024 à 11:00 Rdv 9:00-11:00,47.7815313,7.347339,47.9585244,7.3896085
733138,Toulouse (FR31),Blagnac (FR31),19/03/2024 à 10:00 Rdv 10:00-12:00,19/03/2024 à 16:00,43.6044622,1.4442469,1.3767879,43.6450248
736276,Rueil-malmaison (FR92),Boulogne-billancourt (FR92),20/03/2024 à 14:00,20/03/2024 à 15:00,48.8791007996,2.17808008194,0.0,0.0
734656,Péronne (FR80),Boulogne-sur-mer (FR62),14/03/2024 à 09:00,14/03/2024 à 12:00,49.9289578,2.9321899,50.7259985,1.6118771
736815,Caen (FR14),Bourgtheroulde (FR27),15/03/2024 à 11:45,15/03/2024 à 15:15,0.0,0.0,0.0,0.0
736480,Liège (BE40),Braine-le-château (BE14),14/03/2024 à 13:00,14/03/2024 à 17:00,0.0,0.0,50.6827864,4.2669864
736605,Plougastel-daoulas (FR29),Brech (FR56),15/03/2024 à 10:00,15/03/2024 à 16:00,48.3742317,-4.369679,47.721585,-2.9969193
735842,Saint-brieuc (FR22),Brech (FR56),20/03/2024 à 17:00,21/03/2024 à 17:00,48.5141134,-2.7603283,47.721585,-2.9969193
736598,Awans (BE43),Bruxelles (BE10),18/03/2024 à 11:00 Rdv 11:00-13:00,18/03/2024 à 15:00,50.6670346,5.4622239,50.8550018,4.3512333761166175
736813,Rivery (FR80),Caen (FR14),15/03/2024 à 08:45,15/03/2024 à 11:45,49.9005828,2.3216925,0.0,0.0
733754,Buchelay (FR78),Carros (FR06),19/03/2024 à 10:00 Rdv 10:00-15:00,20/03/2024 à 12:00 Rdv 15:00-17:00,0.0,0.0,43.7846,7.18785
736122,Montpellier (FR34),Castelnau-d'estrétefonds (FR31),18/03/2024 à 11:30 Rdv 11:30-13:30,18/03/2024 à 16:00,43.6112422,3.8767337,43.78251,1.3590892
734875,Laguiole (FR12),Castelnau-d\'estrétefonds (FR31),22/03/2024 à 14:00 Rdv 14:00-15:00,25/03/2024 à 12:00,44.6839098,2.8468743,43.78251,1.3590892
736241,Balma (FR31),Castelnau-d\'estrétefonds (FR31),18/03/2024 à 15:00 Rdv 15:00-16:00,19/03/2024 à 12:00,43.6259022,1.4853573,43.78251,1.3590892
734961,Tarbes (FR65),Castelnau-d\'estrétefonds (FR31),20/03/2024 à 12:00 Rdv 12:00-14:00,20/03/2024 à 16:00,43.232858,781021.0,43.78251,1.3590892
735653,Toulouse (FR31),Castelnau-d\'estrétefonds (FR31),18/03/2024 à 14:00 Rdv 14:00-16:00,18/03/2024 à 19:00,43.6044622,1.4442469,43.78251,1.3590892
733845,Saint-ail (FR54),Cattenom (FR57),19/03/2024 à 08:15,19/03/2024 à 12:00 Rdv 10:00-12:00,49.1808501,5.9960901,49.4074405,6.244669
736415,Thann (FR68),Cesson (FR77),21/03/2024 à 08:30,21/03/2024 à 15:00,47.8101008,7.1020957,48.5624381,2.6021145
736317,Créteil (FR94),Champagne-au-mont-d\'or (FR69),15/03/2024 à 08:30,15/03/2024 à 16:00 Rdv 14:00-16:00,0.0,0.0,0.0,0.0
736620,Corbas (FR69),Champlan (FR91),19/03/2024 à 08:00,19/03/2024 à 15:00,45.6662663,4.9015205,48.7073405,2.2758626
736688,Saint-jean-d\'illac (FR33),Champniers (FR16),25/03/2024 à 11:30,25/03/2024 à 16:00,44.8101856,-0.7815257,45.7145725,0.2050544
732040,Hasselt (BE35),Charleroi (BE60),25/03/2024 à 08:30,25/03/2024 à 10:30,50.9303735,5.3378043,50.4116233,4.444528
735490,Dijon (FR21),Chevigny-saint-sauveur (FR21),21/03/2024 à 10:30,21/03/2024 à 15:00,47.3215806,5.0414701,47.2977106,5.1382218
736364,Le blanc-mesnil (FR93),Chilly-mazarin (FR91),15/03/2024 à 14:00 Rdv 14:00-16:00,15/03/2024 à 17:00,0.0,0.0,48.7026161,2.3123582
736670,Villeneuve-saint-georges (FR94),Chirens (FR38),19/03/2024 à 09:00,19/03/2024 à 16:00,48.7305272,2.44782,45.4138,5.55661
729580,Saint-barthelemy-d'anjou (FR49),Cholet (FR49),14/03/2024 à 12:01,14/03/2024 à 16:00,47.4683081,-0.4932941,47.0617293,-0.8801359
729624,Saint-barthelemy-d'anjou (FR49),Cholet (FR49),18/03/2024 à 16:01,18/03/2024 à 17:00,47.4683081,-0.4932941,47.0617293,-0.8801359
723571,Aunay /s auneau (FR28),Châlons-en-champagne (FR51),18/03/2024 à 08:30,18/03/2024 à 16:00 Rdv 14:00-16:00,48.4670517,1.837231,48.9566218,4.3628851
734610,Lieusaint (FR77),Château-thébaud (FR44),18/03/2024 à 13:00 Rdv 13:00-15:00,18/03/2024 à 16:00,0.0,0.0,0.0,0.0
728118,Avrainville (FR91),Château-thébaud (FR44),15/03/2024 à 09:00 Rdv 9:00-11:00,15/03/2024 à 14:00,48.7733732,5.9384012,0.0,0.0
735436,Levallois-perret (FR92),Château-thébaud (FR44),19/03/2024 à 15:00 Rdv 15:00-17:00,19/03/2024 à 19:00,0.0,0.0,0.0,0.0
735303,Paris la defense (FR92),Château-thébaud (FR44),18/03/2024 à 15:00,18/03/2024 à 19:00,0.0,0.0,0.0,0.0
733551,Melun (FR77),Château-thébaud (FR44),15/03/2024 à 14:00 Rdv 14:00-16:00,15/03/2024 à 18:00,0.0,0.0,0.0,0.0
735495,Neuvy (FR41),Clamecy (FR58),19/03/2024 à 11:00,19/03/2024 à 17:00 Rdv 15:00-17:00,48.7469304,3.5177618,49.4286111,3.3619444
736031,Montagnat (FR01),Clermont-ferrand (FR63),15/03/2024 à 09:00,15/03/2024 à 17:30,0.0,0.0,45.7774551,3.0819427
733799,Avrigny (FR60),Corbehem (FR62),15/03/2024 à 09:00,15/03/2024 à 12:00 Rdv 10:00-12:00,49.3817833,2.57932,0.0,0.0
736672,Neuvy (FR41),Cruzy-le-châtel (FR89),21/03/2024 à 10:00,21/03/2024 à 16:00 Rdv 14:00-16:00,48.7469304,3.5177618,47.8554593,4.2115505
735728,Marckolsheim (FR67),Dijon (FR21),19/03/2024 à 08:30,19/03/2024 à 16:00 Rdv 14:00-16:00,48.165441,7.5444161,47.3215806,5.0414701
735489,Chevigny-saint-sauveur (FR21),Dijon (FR21),21/03/2024 à 09:00,21/03/2024 à 10:30,47.2977106,5.1382218,47.3215806,5.0414701
736340,Montélimar (FR26),Donzère (FR26),12/03/2024 à 11:15,14/03/2024 à 14:45,44.5579391,4.750318,44.4442014,4.7073439
736412,Montélimar (FR26),Donzère (FR26),14/03/2024 à 15:30,15/03/2024 à 15:30,44.5579391,4.750318,44.4442014,4.7073439
735454,Bassens (FR33),Essarts-en-bocage (FR85),25/03/2024 à 13:00,25/03/2024 à 16:30,44.9015003,-0.5163222,46.78605775,-1.2528102863462225
734198,Rouen (FR76),Fleury-mérogis (FR91),20/03/2024 à 11:00 Rdv 11:00-13:00,20/03/2024 à 16:00,49.4404591,1.0939658,48.629965,2.3609313
734200,Rouen (FR76),Fleury-mérogis (FR91),20/03/2024 à 11:00 Rdv 11:00-13:00,20/03/2024 à 16:00,49.4404591,1.0939658,48.629965,2.3609313
734081,Rouen (FR76),Fleury-mérogis (FR91),20/03/2024 à 11:00 Rdv 11:00-13:00,20/03/2024 à 16:00,49.4404591,1.0939658,48.629965,2.3609313
734126,Guéret (FR23),Fleury-mérogis (FR91),18/03/2024 à 13:00 Rdv 13:00-15:00,19/03/2024 à 12:00,46.1686865,1.8713349,48.629965,2.3609313
734262,Laval (FR53),Fleury-mérogis (FR91),19/03/2024 à 11:00 Rdv 11:00-13:00,19/03/2024 à 16:00,48.0706687,-0.7734022,48.629965,2.3609313
734238,Nantes (FR44),Fleury-mérogis (FR91),20/03/2024 à 10:00 Rdv 10:00-12:00,20/03/2024 à 16:00,47.2186371,-1.5541362,48.629965,2.3609313
734131,Rennes (FR35),Fleury-mérogis (FR91),09/04/2024 à 09:00 Rdv 9:00-11:00,09/04/2024 à 16:15,48.1113387,-1.6800198,48.629965,2.3609313
734360,Rennes (FR35),Fleury-mérogis (FR91),19/04/2024 à 09:00 Rdv 9:00-11:00,19/04/2024 à 16:15,48.1113387,-1.6800198,48.629965,2.3609313
734213,Rennes (FR35),Fleury-mérogis (FR91),15/04/2024 à 14:00 Rdv 14:00-16:00,16/04/2024 à 11:00,48.1113387,-1.6800198,48.629965,2.3609313
734368,Quimper (FR29),Fleury-mérogis (FR91),20/03/2024 à 14:00 Rdv 14:00-16:00,21/03/2024 à 12:00,47.9960325,-4.1024782,48.629965,2.3609313
736592,Versailles (FR78),Flins-sur-seine (FR78),18/03/2024 à 10:00,18/03/2024 à 16:30,48.8035403,2.1266886,48.9623407,1.8684146
736602,Mantes-la-jolie (FR78),Flins-sur-seine (FR78),19/03/2024 à 10:00,19/03/2024 à 16:30,48.9891971,1.7140683,48.9623407,1.8684146
736606,Woippy (FR57),Forbach (FR57),19/03/2024 à 14:00 Rdv 14:00-16:00,20/03/2024 à 12:00,49.1515848,6.1519224,49.1862822,6.8958562
735402,Ungersheim (FR68),Forbach (FR57),20/03/2024 à 09:00 Rdv 9:00-11:00,20/03/2024 à 16:00,47.877868,7.304028,49.1862822,6.8958562
736426,Niort (FR79),Fouras (FR17),18/03/2024 à 09:00 Rdv 9:00-10:00,18/03/2024 à 12:30 Rdv 11:30-12:30,46.3239233,-0.4646064,45.9883689,-1.0935837
736454,Wavrin (FR59),Frelinghien (FR59),20/03/2024 à 08:30,20/03/2024 à 12:30 Rdv 10:30-12:30,50.570559,2.932545,0.0,0.0
735598,Geel (BE24),Geel (BE24),15/03/2024 à 13:00 Rdv 13:00-14:00,15/03/2024 à 15:15,51.1610826,4.9903187,51.1610826,4.9903187
735597,Geel (BE24),Geel (BE24),15/03/2024 à 11:00,15/03/2024 à 14:00 Rdv 13:00-14:00,51.1610826,4.9903187,51.1610826,4.9903187
736588,Ludres (FR54),Geneuille (FR25),19/03/2024 à 09:00,19/03/2024 à 15:00 Rdv 14:00-15:00,48.6217058,6.1609279,47.3232842,5.971252
736292,Kortrijk (BE85),Gent (BE90),27/03/2024 à 08:30 Rdv 8:30-9:30,27/03/2024 à 11:45,50.8276429,3.2659884,51.0538286,3.7250121
736055,Tournai (BE75),Gent (BE90),18/03/2024 à 09:00,18/03/2024 à 17:00,50.6056458,3.3878179,51.0538286,3.7250121
736224,Bassens (FR33),Gradignan (FR33),21/03/2024 à 10:00,21/03/2024 à 14:00 Rdv 12:00-14:00,44.9015003,-0.5163222,44.7739701,-0.613907
734125,Castelnau-d'estrétefonds (FR31),Guéret (FR23),18/03/2024 à 08:30,18/03/2024 à 15:00 Rdv 13:00-15:00,43.78251,1.3590892,46.1686865,1.8713349
736187,Machelen (BE18),Heist-op-den-berg (BE22),18/03/2024 à 08:00,18/03/2024 à 13:00 Rdv 11:00-13:00,50.903150350789616,4.449248232844452,51.07913920390559,4.70224973042388
736430,Saint-ail (FR54),Illkirch-graffenstaden (FR67),21/03/2024 à 08:15,21/03/2024 à 16:00 Rdv 14:00-16:00,49.1808501,5.9960901,48.5298611,7.7116218
736475,Lagnieu (FR01),Irigny (FR69),18/03/2024 à 08:30,18/03/2024 à 12:00 Rdv 10:00-12:00,45.9034952,5.3480192,45.6733141,4.8216902
736544,Saint-herblain (FR44),Isneauville (FR76),20/03/2024 à 09:00 Rdv 9:00-10:00,20/03/2024 à 15:00 Rdv 14:00-15:00,47.2238156,-1.6529932,49.4988394,1.1416384
735927,Roeselare (BE88),Izegem (BE88),14/03/2024 à 09:00,14/03/2024 à 17:00,50.9444948,3.124765,50.9137743,3.209106585214543
735767,Asse (BE17),Kruibeke (BE91),25/03/2024 à 10:00,25/03/2024 à 15:00,50.9094333,4.2015646,51.17625475,4.298036873275151
736258,Orvault (FR44),L\'herbergement (FR85),18/03/2024 à 10:00 Rdv 10:00-11:00,18/03/2024 à 14:00,-1.6194319725,47.2511912196,0.0,0.0
736731,Niort (FR79),La chapelle-sur-erdre (FR44),18/03/2024 à 09:30 Rdv 9:30-10:30,18/03/2024 à 14:30 Rdv 13:30-14:30,46.3239233,-0.4646064,47.2996846,-1.5518632
728942,Chartres-de-bretagne (FR35),La chapelle-sur-erdre (FR44),18/03/2024 à 08:00,18/03/2024 à 10:00 Rdv 9:00-10:00,48.0432406,-1.7082369,47.2996846,-1.5518632
736537,Tours (FR37),La riche (FR37),14/03/2024 à 10:30,14/03/2024 à 14:30,0.0,0.0,47.3881295,0.6572824
735779,Marseille (FR13),La roche-de-glun (FR26),20/03/2024 à 11:00 Rdv 11:00-13:00,20/03/2024 à 16:00,43.2961743,5.3699525,45.0133527,4.8443331
736314,Saint-maximin-la-sainte-baume (FR83),La roche-de-glun (FR26),20/03/2024 à 14:00 Rdv 14:00-16:00,21/03/2024 à 12:00,43.4522053,5.862294,45.0133527,4.8443331
731524,Villeneuve-loubet (FR06),La roche-de-glun (FR26),13/03/2024 à 15:00 Rdv 15:00-17:00,14/03/2024 à 10:00,43.6579947,7.1217592,45.0133527,4.8443331
736382,Châteauneuf-de-gadagne (FR84),La roche-de-glun (FR26),25/03/2024 à 11:00 Rdv 11:00-13:00,25/03/2024 à 16:00,43.927603,4.9442687,45.0133527,4.8443331
735483,Saint-étienne (FR42),La roche-de-glun (FR26),14/03/2024 à 14:00 Rdv 14:00-16:00,15/03/2024 à 12:00,45.4401467,4.3873058,45.0133527,4.8443331
734874,Toulouse (FR31),Laguiole (FR12),22/03/2024 à 09:00,22/03/2024 à 15:00 Rdv 14:00-15:00,43.6044622,1.4442469,44.6839098,2.8468743
735237,Aubagne (FR13),Lançon-provence (FR13),15/03/2024 à 09:00,15/03/2024 à 10:30,43.2924385,5.5703031,43.5913062,5.1258628
734260,Wavrin (FR59),Laval (FR53),18/03/2024 à 10:00 Rdv 10:00-15:00,19/03/2024 à 13:00 Rdv 11:00-13:00,50.570559,2.932545,48.0706687,-0.7734022
736353,Wasquehal (FR59),Le blanc-mesnil (FR93),15/03/2024 à 09:00,15/03/2024 à 16:00 Rdv 14:00-16:00,0.0,0.0,0.0,0.0
736448,Tours (FR37),Le cellier (FR44),20/03/2024 à 12:00 Rdv 12:00-14:00,20/03/2024 à 16:30,0.0,0.0,47.3186735,-1.3465357
736220,Le rheu (FR35),Le cellier (FR44),18/03/2024 à 10:00 Rdv 10:00-12:00,18/03/2024 à 16:00,48.101097,-1.795384,47.3186735,-1.3465357
728943,La chapelle-sur-erdre (FR44),Le cellier (FR44),18/03/2024 à 09:00 Rdv 9:00-10:00,18/03/2024 à 16:00,47.2996846,-1.5518632,47.3186735,-1.3465357
736348,Nozay (FR44),Le cellier (FR44),15/03/2024 à 11:00 Rdv 11:00-13:00,15/03/2024 à 15:00,0.0,0.0,47.3186735,-1.3465357
736219,Chartres-de-bretagne (FR35),Le rheu (FR35),18/03/2024 à 08:30,18/03/2024 à 12:00 Rdv 10:00-12:00,48.0432406,-1.7082369,48.101097,-1.795384
736282,Chartres-de-bretagne (FR35),Le rheu (FR35),15/03/2024 à 08:30,15/03/2024 à 12:00 Rdv 10:00-12:00,48.0432406,-1.7082369,48.101097,-1.795384
736278,Loeches (ES28),Lerín (ES31),18/03/2024 à 09:00,18/03/2024 à 15:00 Rdv 13:00-15:00,40.3837901,-3.4092281,42.4827069,-1.9727192
730524,La chapelle-des-fougeretz (FR35),Les andelys (FR27),18/03/2024 à 09:00,18/03/2024 à 13:30,48.178066,-1.7341163,49.2469193,1.4215534
736446,Locquignol (FR59),Lieu-saint-amand (FR59),25/03/2024 à 12:00 Rdv 12:00-14:00,25/03/2024 à 16:00,0.0,0.0,50.2729141,3.3461187
736283,Carrières-sous-poissy (FR78),Lille (FR59),19/03/2024 à 08:30,19/03/2024 à 14:00 Rdv 12:00-14:00,48.9437694,2.0341747,50.6365654,3.0635282
736580,Bassens (FR33),Limoges (FR87),22/03/2024 à 08:30,22/03/2024 à 14:00 Rdv 12:00-14:00,44.9015003,-0.5163222,45.8354243,1.2644847
736581,Limoges (FR87),Limoges (FR87),22/03/2024 à 12:00 Rdv 12:00-14:00,22/03/2024 à 16:00,45.8354243,1.2644847,45.8354243,1.2644847
736445,Wavrin (FR59),Locquignol (FR59),25/03/2024 à 08:30,25/03/2024 à 14:00 Rdv 12:00-14:00,50.570559,2.932545,0.0,0.0
735686,Lambres-lez-douai (FR59),Loison-sous-lens (FR62),15/03/2024 à 08:15,15/03/2024 à 12:00 Rdv 10:00-12:00,0.0,0.0,0.0,0.0
736279,Montoir-de-bretagne (FR44),Lorient (FR56),21/03/2024 à 08:00,21/03/2024 à 11:30,47.3285909,-2.1543171,47.7477336,-3.3660907
723612,Aunay /s auneau (FR28),Lorient (FR56),15/03/2024 à 08:30,15/03/2024 à 16:00 Rdv 14:00-16:00,48.4670517,1.837231,47.7477336,-3.3660907
736295,Orvault (FR44),Luçon (FR85),21/03/2024 à 09:30 Rdv 9:30-10:30,21/03/2024 à 14:00,-1.6194319725,47.2511912196,15.5919971,120.73967457219264
736335,Heist-op-den-berg (BE22),Machelen (BE18),18/03/2024 à 09:00,18/03/2024 à 15:00 Rdv 10:00-15:00,51.07913920390559,4.70224973042388,50.903150350789616,4.449248232844452
736188,Heist-op-den-berg (BE22),Machelen (BE18),18/03/2024 à 11:00 Rdv 11:00-13:00,18/03/2024 à 15:30,51.07913920390559,4.70224973042388,50.903150350789616,4.449248232844452
736236,Esneux (BE41),Machelen (BE18),20/03/2024 à 08:00,20/03/2024 à 15:00 Rdv 9:45-15:00,0.0,0.0,50.903150350789616,4.449248232844452
736246,Sint-pieters-leeuw (BE16),Machelen (BE18),21/03/2024 à 09:00,21/03/2024 à 15:00 Rdv 9:45-15:00,0.0,0.0,50.903150350789616,4.449248232844452
736470,Tienen (BE33),Machelen (BE18),27/03/2024 à 14:00,27/03/2024 à 16:00 Rdv 15:00-16:00,50.6509998,2.4660832,50.903150350789616,4.449248232844452
736339,Boortmeerbeek (BE31),Machelen (BE18),18/03/2024 à 08:00,18/03/2024 à 15:00 Rdv 8:45-15:00,50.978285850000006,4.575800524999997,50.903150350789616,4.449248232844452
736601,Flins-sur-seine (FR78),Mantes-la-jolie (FR78),19/03/2024 à 08:00,19/03/2024 à 10:00,48.9623407,1.8684146,48.9891971,1.7140683
735249,Reims (FR51),Marly (FR59),18/03/2024 à 10:00 Rdv 10:00-12:00,18/03/2024 à 13:48,49.2577886,4.031926,50.3500747,3.5435909
735778,Miramas (FR13),Marseille (FR13),20/03/2024 à 08:30,20/03/2024 à 13:00 Rdv 11:00-13:00,43.582733,5.0025809,43.2961743,5.3699525
735595,La farlede (FR83),Marseille (FR13),28/03/2024 à 08:30,28/03/2024 à 10:00,43.1597,6.04317,43.2961743,5.3699525
736745,Bougneau (FR17),Martignas sur jalle (FR33),20/03/2024 à 09:20,20/03/2024 à 16:20,45.5972347,-0.5144002,44.8405364,-0.7761489
736730,Perpignan (FR66),Martignas sur jalle (FR33),19/03/2024 à 09:00,19/03/2024 à 16:17,42.6985304,2.8953121,44.8405364,-0.7761489
736724,Boe (FR47),Martignas sur jalle (FR33),18/03/2024 à 09:30,18/03/2024 à 17:00,0.0,0.0,44.8405364,-0.7761489
736874,Vénissieux (FR69),Maureilhan (FR34),14/03/2024 à 09:00,14/03/2024 à 21:00 Rdv 18:00-21:00,45.6977109,4.8855966,0.0,0.0
735192,Saint-ail (FR54),Maxéville (FR54),22/03/2024 à 08:15,22/03/2024 à 12:00,49.1808501,5.9960901,48.7119046,6.1641314
736216,Machelen (BE18),Mechelen (BE28),19/03/2024 à 08:00,19/03/2024 à 15:00 Rdv 8:45-15:00,50.903150350789616,4.449248232844452,51.0281381,4.4803453
736582,Zulte (BE98),Mechelen (BE28),18/03/2024 à 08:00,18/03/2024 à 16:00,50.9400485,3.475305501634618,51.0281381,4.4803453
736578,Zulte (BE98),Mechelen (BE28),18/03/2024 à 08:00,18/03/2024 à 16:00,50.9400485,3.475305501634618,51.0281381,4.4803453
734064,Miramas (FR13),Mende (FR48),11/04/2024 à 08:30,11/04/2024 à 12:00 Rdv 10:00-12:00,43.582733,5.0025809,44.5180226,3.4991057
736503,Aalter (BE98),Merelbeke (BE98),15/03/2024 à 08:30,15/03/2024 à 14:00,51.083894,3.4485192,50.9942924,3.7459119
724811,Châlons-en-champagne (FR51),Mexy (FR54),18/03/2024 à 14:00 Rdv 14:00-16:00,19/03/2024 à 12:00,48.9566218,4.3628851,49.4997166,5.7804763
736362,Salon de provence (FR13),Meyreuil (FR13),08/04/2024 à 09:00,08/04/2024 à 15:00,43.6405237,5.0980225,43.4867359,5.4952155
736621,Champlan (FR91),Mitry-mory (FR77),19/03/2024 à 15:00,20/03/2024 à 15:00,48.7073405,2.2758626,48.9839674,2.6183971
731389,Paris (FR75),Mitry-mory (FR77),21/03/2024 à 14:00 Rdv 14:00-16:00,22/03/2024 à 12:00,48.8534951,2.3483915,48.9839674,2.6183971
736611,Moncel-lès-lunéville (FR54),Molsheim (FR67),18/03/2024 à 13:00 Rdv 13:00-15:00,18/03/2024 à 16:00,0.0,0.0,48.5419351,7.4924679
736610,Nanterre (FR92),Moncel-lès-lunéville (FR54),18/03/2024 à 09:30,18/03/2024 à 15:00 Rdv 13:00-15:00,48.8924273,2.2071267,0.0,0.0
736357,La chapelle-longueville (FR27),Montauban-de-bretagne (FR35),18/03/2024 à 10:00 Rdv 10:00-12:00,18/03/2024 à 17:00,49.1093602,1.4269352,48.1998838,-2.0462319
735400,La bruffiere (FR85),Montauban-de-bretagne (FR35),20/03/2024 à 10:00 Rdv 10:00-12:00,20/03/2024 à 16:00,47.02245800712956,-1.191194223581551,48.1998838,-2.0462319
736729,Carhaix-plouguer (FR29),Montauban-de-bretagne (FR35),15/03/2024 à 09:00 Rdv 9:00-11:00,15/03/2024 à 16:00,0.0,0.0,48.1998838,-2.0462319
736233,Vern-sur-seiche (FR35),Montauban-de-bretagne (FR35),14/03/2024 à 09:00 Rdv 9:00-11:00,14/03/2024 à 16:00,48.0452053,-1.6045972,48.1998838,-2.0462319
735450,Ambérieu-en-bugey (FR01),Montbonnot saint martin (FR38),01/04/2024 à 09:20,01/04/2024 à 15:00 Rdv 13:00-15:00,45.9584309,5.3595099,45.2264498,5.80266
736280,Lorient (FR56),Montoir-de-bretagne (FR44),21/03/2024 à 11:30,21/03/2024 à 15:30,47.7477336,-3.3660907,47.3285909,-2.1543171
735631,Saint-laurent-sur-sèvre (FR85),Montoir-de-bretagne (FR44),25/03/2024 à 11:30,25/03/2024 à 15:00,46.9597454,-0.8888005,47.3285909,-2.1543171
736121,Miramas (FR13),Montpellier (FR34),18/03/2024 à 08:30,18/03/2024 à 13:30 Rdv 11:30-13:30,43.582733,5.0025809,43.6112422,3.8767337
736411,Donzère (FR26),Montélimar (FR26),12/03/2024 à 12:00,14/03/2024 à 15:30,44.4442014,4.7073439,44.5579391,4.750318
736667,Wommelgem (BE21),Mortsel (BE26),15/03/2024 à 11:30 Rdv 11:30-12:30,15/03/2024 à 14:45 Rdv 13:45-14:45,51.2031044,4.5238022,51.1704119,4.4566996
736390,Wijnegem (BE21),Mortsel (BE26),15/03/2024 à 10:00 Rdv 10:00-11:00,15/03/2024 à 13:15 Rdv 12:15-13:15,51.2270761,4.5225318,51.1704119,4.4566996
735527,Saint-ail (FR54),Mulhouse (FR68),18/03/2024 à 08:15,18/03/2024 à 14:30,49.1808501,5.9960901,47.7467233,7.3389937
736148,Saint-ail (FR54),Mulhouse (FR68),25/03/2024 à 08:15,25/03/2024 à 12:00,49.1808501,5.9960901,47.7467233,7.3389937
736704,Forbach (FR57),Mundolsheim (FR67),15/03/2024 à 08:30,15/03/2024 à 14:00 Rdv 12:00-14:00,49.1862822,6.8958562,48.6416216,7.7150066
736881,Córdoba (ES14),Málaga (ES29),14/03/2024 à 09:00,14/03/2024 à 16:30,0.0,0.0,36.7213028,-4.4216366
735808,Bassens (FR33),Mérignac (FR33),19/03/2024 à 08:30,19/03/2024 à 12:00 Rdv 10:00-12:00,44.9015003,-0.5163222,44.842168,-0.6469022
735932,Le bouscat (FR33),Mérignac (FR33),26/03/2024 à 09:00,26/03/2024 à 12:00 Rdv 10:00-12:00,44.8661755,-0.5992399,44.842168,-0.6469022
736293,Marckolsheim (FR67),Nancy (FR54),18/03/2024 à 12:00,18/03/2024 à 16:00 Rdv 14:00-16:00,48.165441,7.5444161,48.6937223,6.1834097
736753,Rillieux-la-pape (FR69),Nanterre (FR92),18/03/2024 à 08:30,18/03/2024 à 16:30,45.823514,4.8994366,48.8924273,2.2071267
730328,Bernay (FR27),Nanterre (FR92),14/03/2024 à 14:00 Rdv 14:00-16:00,14/03/2024 à 17:00,0.0,0.0,48.8924273,2.2071267
736228,Annecy (FR74),Nantes (FR44),20/03/2024 à 09:00,21/03/2024 à 11:00 Rdv 9:00-11:00,45.8992348,6.1288847,47.2186371,-1.5541362
734237,Villevêque (FR49),Nantes (FR44),20/03/2024 à 08:30,20/03/2024 à 12:00 Rdv 10:00-12:00,47.5601026,-0.4230772,47.2186371,-1.5541362
735566,Montoir-de-bretagne (FR44),Nantes (FR44),18/03/2024 à 08:30,18/03/2024 à 12:00 Rdv 10:00-12:00,47.3285909,-2.1543171,47.2186371,-1.5541362
735791,Le castellet (FR83),Nice (FR06),20/03/2024 à 13:00 Rdv 13:00-15:00,20/03/2024 à 18:30,0.0,0.0,43.7009358,7.2683912
736427,Fouras (FR17),Niort (FR79),18/03/2024 à 11:30 Rdv 11:30-12:30,18/03/2024 à 16:15 Rdv 15:15-16:15,45.9883689,-1.0935837,46.3239233,-0.4646064
736732,La chapelle-sur-erdre (FR44),Niort (FR79),18/03/2024 à 13:30 Rdv 13:30-14:30,18/03/2024 à 17:45 Rdv 16:45-17:45,47.2996846,-1.5518632,46.3239233,-0.4646064
736053,Saint-méen-le-grand (FR35),Niort (FR79),19/03/2024 à 14:00 Rdv 14:00-15:00,20/03/2024 à 10:15 Rdv 9:15-10:15,48.1894709,-2.1911338,46.3239233,-0.4646064
736066,Sautron (FR44),Niort (FR79),21/03/2024 à 11:00 Rdv 11:00-12:00,21/03/2024 à 16:00 Rdv 15:00-16:00,47.2632611,-1.6683537,46.3239233,-0.4646064
736347,Montoir-de-bretagne (FR44),Nozay (FR44),15/03/2024 à 08:00,15/03/2024 à 13:00 Rdv 11:00-13:00,47.3285909,-2.1543171,0.0,0.0
736450,Forbach (FR57),Oeting (FR57),19/03/2024 à 09:53,19/03/2024 à 12:00 Rdv 10:00-12:00,49.1862822,6.8958562,49.1745826,6.9161261
736260,L\'herbergement (FR85),Orvault (FR44),18/03/2024 à 14:00,18/03/2024 à 17:45,0.0,0.0,-1.6194319725,47.2511912196
736559,Machelen (BE18),Overijse (BE30),18/03/2024 à 08:00,18/03/2024 à 16:00 Rdv 8:45-16:00,50.903150350789616,4.449248232844452,50.7701622,4.5351806
724691,Jouy-le-moutier (FR95),Parcay meslay (FR37),18/03/2024 à 10:00 Rdv 10:00-12:00,18/03/2024 à 16:00,0.0,0.0,47.4413885,0.7456752
726428,Acheres (FR78),Parcay meslay (FR37),18/03/2024 à 10:00 Rdv 10:00-12:00,18/03/2024 à 16:00,0.0,0.0,47.4413885,0.7456752
736226,Maurepas (FR78),Parcay meslay (FR37),18/03/2024 à 10:00,18/03/2024 à 12:19,0.0,0.0,47.4413885,0.7456752
733804,Corbehem (FR62),Parcay meslay (FR37),15/03/2024 à 10:00 Rdv 10:00-12:00,15/03/2024 à 16:00,0.0,0.0,47.4413885,0.7456752
736231,Chennevieres-sur-marne (FR94),Parcay meslay (FR37),18/03/2024 à 10:00,18/03/2024 à 12:00,0.0,0.0,47.4413885,0.7456752
733699,Illiers-combray (FR28),Parcay meslay (FR37),15/03/2024 à 09:00 Rdv 9:00-11:00,15/03/2024 à 16:00,0.0,0.0,47.4413885,0.7456752
731388,Corbas (FR69),Paris (FR75),21/03/2024 à 08:30,21/03/2024 à 16:00 Rdv 14:00-16:00,45.6662663,4.9015205,48.8534951,2.3483915
736807,La chapelle-des-fougeretz (FR35),Pire-chance (FR35),02/04/2024 à 09:00,02/04/2024 à 11:00 Rdv 9:00-11:00,48.178066,-1.7341163,0.0,0.0
736604,Chartres-de-bretagne (FR35),Plougastel-daoulas (FR29),15/03/2024 à 08:30,15/03/2024 à 17:00,48.0432406,-1.7082369,48.3742317,-4.369679
736048,Nice (FR06),Puyloubier (FR13),25/03/2024 à 08:00 Rdv 8:00-9:00,25/03/2024 à 14:00 Rdv 12:00-14:00,43.7009358,7.2683912,43.5259569,5.6746188
734657,Boulogne-sur-mer (FR62),Péronne (FR80),14/03/2024 à 15:00,14/03/2024 à 17:00 Rdv 15:00-17:00,50.7259985,1.6118771,49.9289578,2.9321899
734367,Villevêque (FR49),Quimper (FR29),20/03/2024 à 08:30,20/03/2024 à 16:00 Rdv 14:00-16:00,47.5601026,-0.4230772,47.9960325,-4.1024782
736248,Archamps (FR74),Quincieux (FR69),18/03/2024 à 09:00 Rdv 9:00-11:00,18/03/2024 à 17:00,46.1354538,6.1332458,45.90900965105747,4.762067991264464
733243,Chalamont (FR01),Quincieux (FR69),15/03/2024 à 10:00 Rdv 10:00-12:00,15/03/2024 à 13:00,0.0,0.0,45.90900965105747,4.762067991264464
735247,Avrigny (FR60),Reims (FR51),18/03/2024 à 09:00,18/03/2024 à 12:00 Rdv 10:00-12:00,49.3817833,2.57932,49.2577886,4.031926
729598,Metz (FR57),Removille (FR88),13/03/2024 à 09:15 Rdv 9:15-10:15,13/03/2024 à 16:30 Rdv 14:30-16:30,49.1196964,6.1763552,0.0,0.0
734130,Wavrin (FR59),Rennes (FR35),08/04/2024 à 10:00 Rdv 10:00-15:00,09/04/2024 à 11:00 Rdv 9:00-11:00,50.570559,2.932545,48.1113387,-1.6800198
734212,Villevêque (FR49),Rennes (FR35),15/04/2024 à 08:30,15/04/2024 à 16:00 Rdv 14:00-16:00,47.5601026,-0.4230772,48.1113387,-1.6800198
734359,Wavrin (FR59),Rennes (FR35),18/04/2024 à 10:00 Rdv 10:00-15:00,19/04/2024 à 11:00 Rdv 9:00-11:00,50.570559,2.932545,48.1113387,-1.6800198
735793,Wilrijk (BE26),Roeselare (BE88),18/03/2024 à 12:30,18/03/2024 à 16:30 Rdv 14:30-16:30,51.1700864,4.3942577,50.9444948,3.124765
734080,Avrigny (FR60),Rouen (FR76),20/03/2024 à 08:30,20/03/2024 à 13:00 Rdv 11:00-13:00,49.3817833,2.57932,49.4404591,1.0939658
734199,Avrigny (FR60),Rouen (FR76),20/03/2024 à 08:30,20/03/2024 à 13:00 Rdv 11:00-13:00,49.3817833,2.57932,49.4404591,1.0939658
734197,Avrigny (FR60),Rouen (FR76),20/03/2024 à 08:30,20/03/2024 à 13:00 Rdv 11:00-13:00,49.3817833,2.57932,49.4404591,1.0939658
735414,Nantes (FR44),Saint-aignan-de-grand-lieu (FR44),18/03/2024 à 15:00 Rdv 15:00-17:00,18/03/2024 à 18:00,47.2186371,-1.5541362,47.1224436,-1.6345992
736235,Nantes (FR44),Saint-aignan-de-grand-lieu (FR44),21/03/2024 à 09:00 Rdv 9:00-11:00,21/03/2024 à 14:00,47.2186371,-1.5541362,47.1224436,-1.6345992
730526,Les andelys (FR27),Saint-aignan-de-grand-lieu (FR44),18/03/2024 à 14:00,18/03/2024 à 16:00,49.2469193,1.4215534,47.1224436,-1.6345992
736325,Saint-herblain (FR44),Saint-aignan-grandlieu (FR44),19/03/2024 à 10:30 Rdv 10:30-12:30,19/03/2024 à 16:00,47.2238156,-1.6529932,47.124601,-1.630937
736261,Montoir-de-bretagne (FR44),Saint-aignan-grandlieu (FR44),18/03/2024 à 08:30,18/03/2024 à 13:00 Rdv 11:00-13:00,47.3285909,-2.1543171,47.124601,-1.630937
736262,Saint-aignan-grandlieu (FR44),Saint-aignan-grandlieu (FR44),18/03/2024 à 11:00 Rdv 11:00-13:00,18/03/2024 à 16:00,47.124601,-1.630937,47.124601,-1.630937
736431,Illkirch-graffenstaden (FR67),Saint-ail (FR54),21/03/2024 à 14:00 Rdv 14:00-16:00,22/03/2024 à 09:30,48.5298611,7.7116218,49.1808501,5.9960901
736149,Mulhouse (FR68),Saint-ail (FR54),25/03/2024 à 12:00,25/03/2024 à 16:30,47.7467233,7.3389937,49.1808501,5.9960901
735528,Mulhouse (FR68),Saint-ail (FR54),18/03/2024 à 14:30,19/03/2024 à 12:00,47.7467233,7.3389937,49.1808501,5.9960901
736839,Rivery (FR80),Saint-alban-leysse (FR73),19/03/2024 à 10:00,19/03/2024 à 15:00,49.9005828,2.3216925,0.0,0.0
736831,Rivery (FR80),Saint-amand-sur-fion (FR51),18/03/2024 à 10:30,18/03/2024 à 16:00,49.9005828,2.3216925,0.0,0.0
735988,Bassens (FR33),Saint-aubin-de-blaye (FR33),21/03/2024 à 14:00,21/03/2024 à 16:00,44.9015003,-0.5163222,45.2662866,-0.5641823
729579,Cholet (FR49),Saint-barthelemy-d'anjou (FR49),14/03/2024 à 10:00,14/03/2024 à 12:00,47.0617293,-0.8801359,47.4683081,-0.4932941
729615,Cholet (FR49),Saint-barthelemy-d'anjou (FR49),18/03/2024 à 14:00,18/03/2024 à 16:00,47.0617293,-0.8801359,47.4683081,-0.4932941
735360,Castelnau-d\'estrétefonds (FR31),Saint-cernin-de-larche (FR19),02/04/2024 à 09:00,02/04/2024 à 12:00 Rdv 10:00-12:00,43.78251,1.3590892,45.1030652,1.4144957
736324,Montoir-de-bretagne (FR44),Saint-herblain (FR44),19/03/2024 à 08:30,19/03/2024 à 12:30 Rdv 10:30-12:30,47.3285909,-2.1543171,47.2238156,-1.6529932
736687,Champniers (FR16),Saint-jean-d\'illac (FR33),25/03/2024 à 08:30,25/03/2024 à 11:30,45.7145725,0.2050544,44.8101856,-0.7815257
735630,Montoir-de-bretagne (FR44),Saint-laurent-sur-sèvre (FR85),25/03/2024 à 08:00,25/03/2024 à 11:30,47.3285909,-2.1543171,46.9597454,-0.8888005
736313,Miramas (FR13),Saint-maximin-la-sainte-baume (FR83),20/03/2024 à 08:30,20/03/2024 à 16:00 Rdv 14:00-16:00,43.582733,5.0025809,43.4522053,5.862294
736052,Niort (FR79),Saint-méen-le-grand (FR35),19/03/2024 à 08:30 Rdv 8:30-9:30,19/03/2024 à 15:00 Rdv 14:00-15:00,46.3239233,-0.4646064,48.1894709,-2.1911338
735502,Ingrandes (FR86),Saint-nazaire (FR44),15/03/2024 à 09:00,15/03/2024 à 16:00 Rdv 14:00-16:00,46.8759026,0.5688208,47.2733517,-2.2138905
735646,Mougins (FR06),Saint-raphaël (FR83),26/03/2024 à 10:45 Rdv 10:45-11:45,26/03/2024 à 15:00 Rdv 13:00-15:00,43.6008898,6.9963543,45.3043079,1.0747165
736476,Irigny (FR69),Saint-vulbas (FR01),18/03/2024 à 10:00 Rdv 10:00-12:00,18/03/2024 à 16:00,45.6733141,4.8216902,45.8306,5.28959
736840,Saint-alban-leysse (FR73),Saint-vulbas (FR01),19/03/2024 à 15:00,20/03/2024 à 11:30,0.0,0.0,45.8306,5.28959
735729,Dijon (FR21),Saint-vulbas (FR01),19/03/2024 à 14:00 Rdv 14:00-16:00,20/03/2024 à 12:00,47.3215806,5.0414701,45.8306,5.28959
735482,Lagnieu (FR01),Saint-étienne (FR42),18/03/2024 à 08:30,18/03/2024 à 16:00 Rdv 14:00-16:00,45.9034952,5.3480192,45.4401467,4.3873058
736341,Miramas (FR13),Salon de provence (FR13),08/04/2024 à 08:00,08/04/2024 à 11:00 Rdv 9:00-11:00,43.582733,5.0025809,43.6405237,5.0980225
736883,Vilanova del camí (ES08),Sant joan despí (ES08),14/03/2024 à 17:45 Rdv 17:45-18:45,14/03/2024 à 20:00,0.0,0.0,0.0,0.0
736065,Niort (FR79),Sautron (FR44),21/03/2024 à 08:30 Rdv 8:30-9:30,21/03/2024 à 12:00 Rdv 11:00-12:00,46.3239233,-0.4646064,47.2632611,-1.6683537
736829,Saint-etienne (FR42),Seynod (FR74),15/03/2024 à 13:00 Rdv 13:00-15:00,15/03/2024 à 17:00,45.4401467,4.3873058,0.0,0.0
732473,Watermael-boitsfort (BE11),Sint-niklaas (BE91),08/03/2024 à 09:30,13/03/2024 à 15:30,50.7981063,4.4176441,51.1646685,4.1395124
736037,Saint-georges-d'esperanche (FR38),St priest (FR69),15/03/2024 à 09:00,15/03/2024 à 16:00,45.5574829,5.0808076,45.699911230631024,4.940050948355273
734960,Bassens (FR33),Tarbes (FR65),20/03/2024 à 09:30,20/03/2024 à 14:00 Rdv 12:00-14:00,44.9015003,-0.5163222,43.232858,781021.0
735411,Tarnos (FR40),Tarnos (FR40),19/03/2024 à 08:00,19/03/2024 à 16:00 Rdv 14:00-16:00,43.5405622,-1.4611915,43.5405622,-1.4611915
735412,Tarnos (FR40),Tarnos (FR40),19/03/2024 à 14:00 Rdv 14:00-16:00,19/03/2024 à 16:30,43.5405622,-1.4611915,43.5405622,-1.4611915
736735,Bidart (FR64),Tarnos (FR40),19/03/2024 à 14:00 Rdv 14:00-16:00,20/03/2024 à 11:00,43.4391702,-1.5898909,43.5405622,-1.4611915
731169,Entzheim (FR67),Thiaucourt-regniéville (FR54),21/03/2024 à 09:36,21/03/2024 à 14:00 Rdv 12:00-14:00,48.5346177,7.6358832,48.9544506,5.8675157
736117,Miramas (FR13),Toulon (FR83),18/03/2024 à 08:30,18/03/2024 à 13:30 Rdv 11:30-13:30,43.582733,5.0025809,43.13384507846755,5.930004113739942
735652,Bassens (FR33),Toulouse (FR31),18/03/2024 à 10:00,18/03/2024 à 16:00 Rdv 14:00-16:00,44.9015003,-0.5163222,43.6044622,1.4442469
733137,Corbas (FR69),Toulouse (FR31),18/03/2024 à 10:00 Rdv 10:00-15:00,19/03/2024 à 12:00 Rdv 10:00-12:00,45.6662663,4.9015205,43.6044622,1.4442469
736447,Montoir-de-bretagne (FR44),Tours (FR37),20/03/2024 à 08:30,20/03/2024 à 14:00 Rdv 12:00-14:00,47.3285909,-2.1543171,0.0,0.0
736536,Le cellier (FR44),Tours (FR37),14/03/2024 à 08:00,14/03/2024 à 10:30,47.3186735,-1.3465357,0.0,0.0
736858,Sant joan despí (ES08),Vallirana (ES08),14/03/2024 à 08:00,14/03/2024 à 10:15 Rdv 9:45-10:15,0.0,0.0,0.0,0.0
734992,Le mans (FR72),Varaville (FR14),18/03/2024 à 10:00,18/03/2024 à 15:00 Rdv 13:00-15:00,48.0073849,0.1967849,49.253386,-0.1582652
736284,Lille (FR59),Vendin-lès-béthune (FR62),19/03/2024 à 12:00 Rdv 12:00-14:00,19/03/2024 à 16:00,50.6365654,3.0635282,50.548777,2.6008182
736591,Flins-sur-seine (FR78),Versailles (FR78),18/03/2024 à 08:00,18/03/2024 à 10:00,48.9623407,1.8684146,48.8035403,2.1266886
736882,Sant joan despí (ES08),Vilanova del camí (ES08),14/03/2024 à 16:00,14/03/2024 à 18:45 Rdv 17:45-18:45,0.0,0.0,0.0,0.0
731523,Corbas (FR69),Villeneuve-loubet (FR06),13/03/2024 à 08:30 Rdv 8:30-10:30,13/03/2024 à 17:00 Rdv 15:00-17:00,45.6662663,4.9015205,43.6579947,7.1217592
736300,Brest (FR29),Villevêque (FR49),19/03/2024 à 09:00 Rdv 9:00-11:00,19/03/2024 à 16:00,48.385361,-4.476705,47.5601026,-0.4230772
735706,Romorantin-lanthenay (FR41),Villevêque (FR49),18/03/2024 à 09:00 Rdv 9:00-11:00,18/03/2024 à 16:00,47.3592182,1.7434925,47.5601026,-0.4230772
736434,Etterbeek (BE10),Vilvoorde (BE18),15/03/2024 à 08:30 Rdv 8:30-10:30,15/03/2024 à 11:30 Rdv 10:30-11:30,50.8361447,4.3861737,50.928711,4.423126
732598,La riche (FR37),Vivonne (FR86),19/03/2024 à 09:00,19/03/2024 à 11:00,47.3881295,0.6572824,46.4262128,0.2584318
735730,Tongeren (BE37),Waregem (BE87),25/03/2024 à 10:30,25/03/2024 à 16:00,50.7806267,5.4639172,50.8868222,3.4323622
735688,Lestrem (FR62),Wavrin (FR59),22/03/2024 à 09:00 Rdv 9:00-11:00,22/03/2024 à 16:00,50.6216212,2.6857534,50.570559,2.932545
736389,Mortsel (BE26),Wijnegem (BE21),15/03/2024 à 09:00 Rdv 9:00-10:00,15/03/2024 à 11:00 Rdv 10:00-11:00,51.1704119,4.4566996,51.2270761,4.5225318
735794,Roeselare (BE88),Wilrijk (BE26),18/03/2024 à 14:30 Rdv 14:30-16:30,18/03/2024 à 16:45,50.9444948,3.124765,51.1700864,4.3942577
736464,Nanterre (FR92),Woippy (FR57),19/03/2024 à 09:00,19/03/2024 à 16:00 Rdv 14:00-16:00,48.8924273,2.2071267,49.1515848,6.1519224
736666,Antwerpen (BE20),Wommelgem (BE21),15/03/2024 à 10:45 Rdv 10:45-11:45,15/03/2024 à 12:30,51.2211097,4.3997081,51.2031044,4.5238022
736414,Zwijndrecht (BE20),Zwijndrecht (BE20),15/03/2024 à 08:00 Rdv 8:00-9:00,15/03/2024 à 10:45,51.8162227,4.6405166,51.8162227,4.6405166
736631,Zwijndrecht (BE20),Zwijndrecht (BE20),15/03/2024 à 08:30 Rdv 8:30-9:30,15/03/2024 à 10:30 Rdv 9:30-10:30,51.8162227,4.6405166,51.8162227,4.6405166
736432,Zwijndrecht (BE20),Zwijndrecht (BE20),15/03/2024 à 10:00 Rdv 10:00-11:00,15/03/2024 à 11:45,51.8162227,4.6405166,51.8162227,4.6405166
736418,Zwijndrecht (BE20),Zwijndrecht (BE20),15/03/2024 à 08:00 Rdv 8:00-9:00,15/03/2024 à 11:45 Rdv 9:45-11:45,51.8162227,4.6405166,51.8162227,4.6405166
736405,Zwijndrecht (BE20),Zwijndrecht (BE20),15/03/2024 à 10:00 Rdv 10:00-11:00,15/03/2024 à 13:15 Rdv 12:15-13:15,51.8162227,4.6405166,51.8162227,4.6405166
736423,Zwijndrecht (BE20),Zwijndrecht (BE20),15/03/2024 à 08:30 Rdv 8:30-9:30,15/03/2024 à 11:15,51.8162227,4.6405166,51.8162227,4.6405166
736404,Zwijndrecht (BE20),Zwijndrecht (BE20),15/03/2024 à 08:00 Rdv 8:00-9:00,15/03/2024 à 11:00 Rdv 10:00-11:00,51.8162227,4.6405166,51.8162227,4.6405166
