IDtrajet,Ville de Départ,Ville d'arrivée,A partir du,Jusqu'au,Départ_Latitude,Départ_Longitude,Arrivé_Latitude,Arrivé_Longitude
739129,Zottegem (BE96),Aalst (BE93),26/04/2024 à 10:00,26/04/2024 à 16:00,50.864231200000006,3.810268614570032,50.9383226,4.0392147
739228,Poitiers (FR86),Aixe-sur-vienne (FR87),29/03/2024 à 11:00 Rdv 11:00-12:00,29/03/2024 à 17:00 Rdv 16:00-17:00,46.5802596,0.340196,45.7967581,1.1362125
739035,Cénac-et-saint-julien (FR24),Albias (FR82),21/03/2024 à 15:00 Rdv 15:00-17:00,22/03/2024 à 12:00,44.799204,1.2043106,44.0908333,1.4502778
739470,Assier (FR46),Albias (FR82),25/03/2024 à 12:00,25/03/2024 à 13:30,44.6753004,1.8762866,44.0908333,1.4502778
739371,Gandia (ES46),Alicante-alacant (ES03),20/03/2024 à 15:00 Rdv 15:00-16:00,20/03/2024 à 17:30,38.9675925,-0.1803423,38.3436365,-0.4881708
735933,Mérignac (FR33),Ambarès-et-lagrave (FR33),26/03/2024 à 10:00 Rdv 10:00-12:00,26/03/2024 à 12:00,44.842168,-0.6469022,44.9259011,-0.4881846
739188,Villenave-d'ornon (FR33),Ambarès-et-lagrave (FR33),21/03/2024 à 14:00 Rdv 14:00-16:00,21/03/2024 à 17:00,44.7737872,-0.5595029,44.9259011,-0.4881846
737913,Franqueville saint pierre (FR76),Ambarès-et-lagrave (FR33),26/03/2024 à 15:00 Rdv 15:00-17:00,27/03/2024 à 15:00,49.4027,1.1825,44.9259011,-0.4881846
737587,Valff (FR67),Ambérieu-en-bugey (FR01),25/03/2024 à 15:00 Rdv 15:00-17:00,26/03/2024 à 10:00,48.4222377,7.5227937,45.9584309,5.3595099
734122,Clermont-ferrand (FR63),Ambérieu-en-bugey (FR01),26/03/2024 à 14:00 Rdv 14:00-16:00,27/03/2024 à 12:00,45.7774551,3.0819427,45.9584309,5.3595099
736862,Clermont-ferrand (FR63),Ambérieu-en-bugey (FR01),26/03/2024 à 14:00,27/03/2024 à 12:00,45.7774551,3.0819427,45.9584309,5.3595099
738431,Rochetoirin (FR38),Ambérieu-en-bugey (FR01),20/03/2024 à 09:00,20/03/2024 à 17:00,45.5814,5.41905,45.9584309,5.3595099
738515,Besancon (FR25),Ambérieu-en-bugey (FR01),25/03/2024 à 09:00 Rdv 9:00-11:00,25/03/2024 à 14:00,47.2380222,6.0243622,45.9584309,5.3595099
739380,Blyes (FR01),Ambérieu-en-bugey (FR01),22/03/2024 à 12:00,22/03/2024 à 14:00,45.8469121,5.2487121,45.9584309,5.3595099
737393,Avrigny (FR60),Antony (FR92),26/03/2024 à 09:00,26/03/2024 à 12:00 Rdv 10:00-12:00,49.3817833,2.57932,48.753554,2.2959423
738487,Bruxelles (BE10),Antwerpen (BE21),22/03/2024 à 09:00,22/03/2024 à 15:00,50.8550018,4.3512333761166175,51.2211097,4.3997081
738503,Bruxelles (BE10),Antwerpen (BE21),22/03/2024 à 09:00,22/03/2024 à 15:00,50.8550018,4.3512333761166175,51.2211097,4.3997081
738491,Bruxelles (BE10),Antwerpen (BE21),22/03/2024 à 09:00,22/03/2024 à 15:00,50.8550018,4.3512333761166175,51.2211097,4.3997081
737966,Rhode-saint-genèse (BE16),Antwerpen (BE21),20/03/2024 à 09:00,20/03/2024 à 15:00,50.74503,4.3463687,51.2211097,4.3997081
738488,Bruxelles (BE10),Antwerpen (BE21),22/03/2024 à 09:00,22/03/2024 à 15:00,50.8550018,4.3512333761166175,51.2211097,4.3997081
738505,Bruxelles (BE10),Antwerpen (BE21),22/03/2024 à 09:00,22/03/2024 à 15:00,50.8550018,4.3512333761166175,51.2211097,4.3997081
738489,Bruxelles (BE10),Antwerpen (BE21),22/03/2024 à 09:00,22/03/2024 à 15:00,50.8550018,4.3512333761166175,51.2211097,4.3997081
739341,Zaventem (BE19),Antwerpen (BE21),20/03/2024 à 09:00,20/03/2024 à 15:00,50.8806207,4.4730008,51.2211097,4.3997081
738773,Couëron (FR44),Arnage (FR72),19/03/2024 à 09:00,21/03/2024 à 17:00,0.0,0.0,47.9269544,0.1889245
739542,Besançon (FR25),Ars-laquenexy (FR57),19/03/2024 à 15:45 Rdv 15:45-17:45,20/03/2024 à 18:00 Rdv 16:00-18:00,47.24267101995112,6.009830063015576,0.0,0.0
739469,Bassens (FR33),Assier (FR46),25/03/2024 à 08:00,25/03/2024 à 12:00,44.9015003,-0.5163222,44.6753004,1.8762866
737111,La chapelle-d\'aurec (FR43),Aubière (FR63),03/04/2024 à 11:00 Rdv 11:00-12:00,03/04/2024 à 15:00,45.3355965,4.2072832,45.7512575,3.1144195
738779,Villeneuve-d\'ascq (FR59),Avion (FR62),22/03/2024 à 12:00 Rdv 12:00-14:00,22/03/2024 à 16:00,50.6193174,3.1314002,50.4126128,2.8343891
739410,Parque coimbra (ES28),Azuqueca de henares (ES19),22/03/2024 à 07:45 Rdv le 19: 14:15-16:15,22/03/2024 à 13:30,40.3092277,-3.9270075,40.5683808,-3.2627134
736189,Arras (FR62),Bailly-romainvilliers (FR77),22/03/2024 à 09:00,22/03/2024 à 11:00,50.290277,2.776273,2.8247398,48.8471425
738527,Périgueux (FR24),Bassens (FR33),01/04/2024 à 09:00,01/04/2024 à 11:00,45.1909365,0.7184407,44.9015003,-0.5163222
737855,Saint georges de didonne (FR17),Bassens (FR33),29/03/2024 à 09:00,29/03/2024 à 11:30,45.6024886,-0.997949,44.9015003,-0.5163222
732005,Salviac (FR46),Bassens (FR33),29/03/2024 à 09:00,29/03/2024 à 14:00,44.6806047,1.2611389,44.9015003,-0.5163222
739245,Artés (ES08),Bellvei (ES43),20/03/2024 à 10:00 Rdv 10:00-12:00,20/03/2024 à 17:00,43.9540167,2.2079468,41.2390234,1.5780273
738445,Laxou (FR54),Bezannes (FR51),25/03/2024 à 08:00 Rdv 8:00-9:00,25/03/2024 à 12:00 Rdv 10:45-12:00,0.0,0.0,0.0,0.0
736743,Illzach (FR68),Biltzheim (FR68),02/04/2024 à 09:00,02/04/2024 à 11:00 Rdv 9:00-11:00,47.7815313,7.347339,47.9585244,7.3896085
737457,Poitiers (FR86),Blain (FR44),22/03/2024 à 08:30 Rdv 8:30-9:30,22/03/2024 à 16:00 Rdv 14:00-16:00,46.5802596,0.340196,47.4755536,-1.7643647
738281,Bassens (FR33),Boisseuil (FR87),04/04/2024 à 10:30,04/04/2024 à 15:30,44.9015003,-0.5163222,45.7699722,1.3307721
739132,Eybens (FR38),Bonneville (FR74),19/03/2024 à 09:00,20/03/2024 à 17:00,45.1524,5.74812,50.082567,2.2486687
738699,Forbach (FR57),Boulogne billancourt (FR92),21/03/2024 à 09:15,21/03/2024 à 16:00 Rdv 14:00-16:00,49.1862822,6.8958562,48.8356649,2.240206
737392,Normanville (FR27),Bourgtheroulde (FR27),08/04/2024 à 10:00 Rdv 10:00-12:00,08/04/2024 à 16:00,49.6948768,0.5941406,49.8584882,0.7117745
739365,Fleury-les-aubrais (FR45),Boussay (FR44),22/03/2024 à 09:00,22/03/2024 à 16:00 Rdv 14:00-16:00,47.9309156,1.9208883,46.8411118,0.8882705
738533,Marckolsheim (FR67),Bouxières-aux-dames (FR54),21/03/2024 à 08:30,21/03/2024 à 14:00 Rdv 12:00-14:00,48.165441,7.5444161,0.0,0.0
739535,Pommeret (FR22),Brech (FR56),22/03/2024 à 10:00 Rdv 10:00-12:00,22/03/2024 à 16:00,0.0,0.0,47.721585,-2.9969193
738375,Theix-noyalo (FR56),Brech (FR56),22/03/2024 à 10:00 Rdv 10:00-12:00,22/03/2024 à 12:45,47.63049455,-2.637546715043245,47.721585,-2.9969193
738591,Le relecq-kerhuon (FR29),Brech (FR56),28/03/2024 à 12:30,29/03/2024 à 12:30,48.4075514,-4.3965573,47.721585,-2.9969193
737563,Orvault (FR44),Brive-la-gaillarde (FR19),19/03/2024 à 17:00 Rdv 17:00-19:00,20/03/2024 à 14:00,-1.6194319725,47.2511912196,45.1584982,1.5332389
735455,Essarts-en-bocage (FR85),Bruges (FR33),25/03/2024 à 16:30,26/03/2024 à 11:00,46.78605775,-1.2528102863462225,51.2085526,3.226772
736993,Canéjan (FR33),Bruges (FR33),21/03/2024 à 10:00,21/03/2024 à 11:00,44.7626562,-0.6540587,51.2085526,3.226772
737180,La roche-sur-yon (FR85),Bruges (FR33),27/03/2024 à 12:00,27/03/2024 à 16:00,46.6705431,-1.4269698,51.2085526,3.226772
739463,Machelen (BE18),Bruxelles (BE11),29/03/2024 à 08:00,29/03/2024 à 17:00 Rdv 8:45-17:00,50.903150350789616,4.449248232844452,50.8550018,4.3512333761166175
739460,Machelen (BE18),Bruxelles (BE11),29/03/2024 à 08:00,29/03/2024 à 17:00 Rdv 8:45-17:00,50.903150350789616,4.449248232844452,50.8550018,4.3512333761166175
738358,Saint-quentin (FR02),Butry-sur-oise (FR95),22/03/2024 à 09:00,22/03/2024 à 11:30,49.8465253,3.2876843,49.0856723,2.1979556
739363,Villevêque (FR49),Bénodet (FR29),25/03/2024 à 08:30,25/03/2024 à 15:00 Rdv 13:00-15:00,47.5601026,-0.4230772,47.8746373,-4.1109828
735089,Avrigny (FR60),Cabourg (FR14),02/04/2024 à 10:00,02/04/2024 à 16:00 Rdv 14:00-16:00,49.3817833,2.57932,49.2934373,-0.1155085
739511,Saint-contest (FR14),Caissargues (FR30),25/03/2024 à 12:00,26/03/2024 à 17:00,49.214191,-0.4011923,43.7961462,4.3783053
736992,Bassens (FR33),Canéjan (FR33),21/03/2024 à 09:00,21/03/2024 à 10:00,44.9015003,-0.5163222,44.7626562,-0.6540587
739313,Montoir-de-bretagne (FR44),Carquefou (FR44),25/03/2024 à 08:30,25/03/2024 à 12:00 Rdv 10:00-12:00,47.3285909,-2.1543171,47.2971979,-1.4921233
736112,Montpellier (FR34),Castelnau-d'estrétefonds (FR31),10/04/2024 à 14:00 Rdv 14:00-16:00,10/04/2024 à 16:00,43.6112422,3.8767337,43.78251,1.3590892
736120,Montpellier (FR34),Castelnau-d'estrétefonds (FR31),10/04/2024 à 09:00 Rdv 9:00-11:00,10/04/2024 à 16:00,43.6112422,3.8767337,43.78251,1.3590892
739408,Toulouse (FR31),Castelnau-d\'estrétefonds (FR31),26/03/2024 à 16:00,26/03/2024 à 17:00,43.6044622,1.4442469,43.78251,1.3590892
737467,Mur-de-barrez (FR12),Castelnau-d\'estrétefonds (FR31),26/03/2024 à 14:00 Rdv 14:00-15:00,27/03/2024 à 12:00,44.8416264,2.6635471,43.78251,1.3590892
738061,Les pennes-mirabeau (FR13),Cessy (FR01),18/03/2024 à 14:00,19/03/2024 à 17:00,43.4098822,5.3090324,46.3181308,6.0691189
739421,Ambérieu-en-bugey (FR01),Chalon sur saone (FR71),22/03/2024 à 12:00,22/03/2024 à 16:00 Rdv 14:00-16:00,45.9584309,5.3595099,46.7831001,4.8534326
739443,Aubagne (FR13),Champigny sur marne (FR94),25/03/2024 à 14:00,26/03/2024 à 09:00,43.2924385,5.5703031,48.8137759,2.5107384
736688,Saint-jean-d\'illac (FR33),Champniers (FR16),25/03/2024 à 11:30,25/03/2024 à 16:00,44.8101856,-0.7815257,45.7145725,0.2050544
738050,Lagnieu (FR01),Chaponost (FR69),25/03/2024 à 08:30,25/03/2024 à 13:00 Rdv 11:00-13:00,45.9034952,5.3480192,0.0,0.0
739155,Aubagne (FR13),Chassieu (FR69),25/03/2024 à 08:30,25/03/2024 à 11:30,43.2924385,5.5703031,45.7422756,4.9681796
739162,Aubagne (FR13),Chassieu (FR69),25/03/2024 à 08:30,25/03/2024 à 11:30,43.2924385,5.5703031,45.7422756,4.9681796
739484,La norville (FR91),Chatou (FR78),25/03/2024 à 08:30,25/03/2024 à 13:00 Rdv 11:00-13:00,48.5856753,2.2583893,48.8897044,2.1573695
739531,Varennes-vauzelles (FR58),Chaumont (FR52),18/03/2024 à 15:30,20/03/2024 à 18:30,0.0,0.0,48.1111324,5.1395849
739558,Orvault (FR44),Chavanod (FR74),21/03/2024 à 09:30 Rdv 9:30-11:30,22/03/2024 à 11:30 Rdv 9:30-11:30,-1.6194319725,47.2511912196,45.8842342,6.0525071
739512,Parcay meslay (FR37),Chilly mazarin (FR91),18/03/2024 à 15:15,20/03/2024 à 17:00,47.4413885,0.7456752,48.7026161,2.3123582
739338,Zaventem (BE19),Chiny (BE68),25/03/2024 à 10:00,25/03/2024 à 15:00 Rdv 13:00-15:00,50.8806207,4.4730008,35.000074,104.999927
738707,Les alleuds (FR49),Château-thébaud (FR44),03/04/2024 à 10:00 Rdv 10:00-12:00,03/04/2024 à 14:25,47.31614075,-0.4151700234719045,47.1246294,-1.4213694
738905,Nieul le dolent (FR85),Château-thébaud (FR44),21/03/2024 à 15:00 Rdv 15:00-16:00,21/03/2024 à 17:00,46.5745648,-1.5077617,47.1246294,-1.4213694
730918,Bussy-saint-georges (FR77),Château-thébaud (FR44),29/03/2024 à 13:00 Rdv 13:00-15:00,29/03/2024 à 16:00,48.8389953,2.7171086,47.1246294,-1.4213694
735110,Taverny (FR95),Château-thébaud (FR44),29/03/2024 à 09:00 Rdv 9:00-11:00,29/03/2024 à 12:00,49.0265888,2.2234971,47.1246294,-1.4213694
728259,Avilly-saint-leonard (FR60),Château-thébaud (FR44),01/04/2024 à 15:00 Rdv 15:00-17:00,02/04/2024 à 16:00,0.0,0.0,47.1246294,-1.4213694
736381,Miramas (FR13),Châteauneuf-de-gadagne (FR84),25/03/2024 à 08:30,25/03/2024 à 13:00 Rdv 11:00-13:00,43.582733,5.0025809,43.927603,4.9442687
738755,Miramas (FR13),Clarensac (FR30),22/03/2024 à 08:45,22/03/2024 à 15:30,43.582733,5.0025809,43.8266904,4.2176541
736861,Castelnau-d'estrétefonds (FR31),Clermont-ferrand (FR63),26/03/2024 à 09:15,26/03/2024 à 16:00 Rdv 14:00-16:00,43.78251,1.3590892,45.7774551,3.0819427
734121,Castelnau-d'estrétefonds (FR31),Clermont-ferrand (FR63),26/03/2024 à 08:30,26/03/2024 à 16:00 Rdv 14:00-16:00,43.78251,1.3590892,45.7774551,3.0819427
739091,Reims (FR51),Colombier-saugnieu (FR69),22/03/2024 à 08:00,22/03/2024 à 15:00,49.2577886,4.031926,45.7113787,5.1119241
737822,Berck (FR62),Cormontreuil (FR51),03/04/2024 à 14:00,04/04/2024 à 10:00,0.0,0.0,0.0,0.0
739034,Bassens (FR33),Cénac-et-saint-julien (FR24),21/03/2024 à 08:30,21/03/2024 à 17:00 Rdv 15:00-17:00,44.9015003,-0.5163222,44.799204,1.2043106
738945,La roche-sur-yon (FR85),Dijon (FR21),21/03/2024 à 10:00 Rdv 10:00-12:00,22/03/2024 à 12:00 Rdv 10:00-12:00,46.6705431,-1.4269698,47.3215806,5.0414701
738404,Gent (BE90),Diksmuide (BE86),28/03/2024 à 09:00,28/03/2024 à 16:30,51.0538286,3.7250121,51.0333408,2.8647185
739540,Montélimar (FR26),Entraigues-sur-la-sorgue (FR84),20/03/2024 à 09:00,20/03/2024 à 14:00,44.5579391,4.750318,0.0,0.0
739514,Erstein (FR67),Entzheim (FR67),20/03/2024 à 14:00 Rdv 14:00-16:00,20/03/2024 à 16:00,48.4227385,7.6632641,48.5346177,7.6358832
738567,Avrigny (FR60),Erstein (FR67),20/03/2024 à 09:40,20/03/2024 à 16:00 Rdv 14:00-16:00,49.3817833,2.57932,48.4227385,7.6632641
735454,Bassens (FR33),Essarts-en-bocage (FR85),25/03/2024 à 13:00,25/03/2024 à 16:30,44.9015003,-0.5163222,46.78605775,-1.2528102863462225
739569,Beauvais (FR60),Eybens (FR38),20/03/2024 à 09:00,20/03/2024 à 16:30,49.4300997,2.0823355,45.1524,5.74812
738557,Montbonnot-saint-martin (FR38),Fabas (FR82),25/03/2024 à 09:00 Rdv 9:00-11:00,25/03/2024 à 17:00 Rdv 15:00-17:00,45.2264498,5.80266,43.3141952,0.8940644
738303,Poitiers (FR86),Fleury-mérogis (FR91),22/03/2024 à 14:00 Rdv 14:00-16:00,25/03/2024 à 09:00,46.5802596,0.340196,48.629965,2.3609313
734314,Poitiers (FR86),Fleury-mérogis (FR91),19/03/2024 à 11:00 Rdv 11:00-13:00,19/03/2024 à 16:00,46.5802596,0.340196,48.629965,2.3609313
737803,Olivet (FR45),Fleury-mérogis (FR91),03/04/2024 à 15:00,04/04/2024 à 14:00,47.8650984,1.9015752,48.629965,2.3609313
734360,Rennes (FR35),Fleury-mérogis (FR91),16/04/2024 à 09:00 Rdv 9:00-11:00,16/04/2024 à 16:30,48.1113387,-1.6800198,48.629965,2.3609313
734213,Rennes (FR35),Fleury-mérogis (FR91),15/04/2024 à 14:00 Rdv 14:00-16:00,16/04/2024 à 11:00,48.1113387,-1.6800198,48.629965,2.3609313
734254,Lille (FR59),Fleury-mérogis (FR91),09/04/2024 à 10:00 Rdv 10:00-12:00,09/04/2024 à 16:00,50.6365654,3.0635282,48.629965,2.3609313
734194,Laval (FR53),Fleury-mérogis (FR91),26/03/2024 à 10:00 Rdv 10:00-12:00,26/03/2024 à 16:30,48.0706687,-0.7734022,48.629965,2.3609313
734196,Laval (FR53),Fleury-mérogis (FR91),22/03/2024 à 10:00 Rdv 10:00-12:00,22/03/2024 à 14:00,48.0706687,-0.7734022,48.629965,2.3609313
738965,Pontoise (FR95),Fleury-mérogis (FR91),22/03/2024 à 10:00 Rdv 10:00-12:00,22/03/2024 à 16:00,49.0508845,2.1008067,48.629965,2.3609313
739112,Nanterre (FR92),Flins-sur-seine (FR78),26/03/2024 à 12:00,26/03/2024 à 16:30,48.8924273,2.2071267,48.9623407,1.8684146
737701,Gidy (FR45),Flins-sur-seine (FR78),29/03/2024 à 12:00,29/03/2024 à 16:30,47.9899429,1.8368508,48.9623407,1.8684146
739062,Orléans (FR45),Flins-sur-seine (FR78),21/03/2024 à 10:15 Rdv 10:15-12:00,21/03/2024 à 16:30,47.9027336,1.9086066,48.9623407,1.8684146
739054,Saint-cloud (FR92),Flins-sur-seine (FR78),26/03/2024 à 09:00 Rdv 9:00-12:00,26/03/2024 à 16:30,48.8437412,2.219344,48.9623407,1.8684146
739058,Rungis (FR94),Flins-sur-seine (FR78),21/03/2024 à 14:00 Rdv 14:00-16:00,22/03/2024 à 16:30,48.7484048,2.3472665,48.9623407,1.8684146
739553,Montoir-de-bretagne (FR44),Fontaine-le-comte (FR86),29/03/2024 à 10:00,29/03/2024 à 16:00 Rdv 14:00-16:00,47.3285909,-2.1543171,0.0,0.0
739333,Avrigny (FR60),Fontaine-raoul (FR41),25/03/2024 à 10:00,25/03/2024 à 16:00 Rdv 14:00-16:00,49.3817833,2.57932,47.9909989,1.1391
737908,Ambarès-et-lagrave (FR33),Franqueville saint pierre (FR76),25/03/2024 à 14:00,26/03/2024 à 17:00 Rdv 15:00-17:00,44.9259011,-0.4881846,49.4027,1.1825
735368,Castelnau-d\'estrétefonds (FR31),Gamarde-les-bains (FR40),02/04/2024 à 10:00,02/04/2024 à 16:00 Rdv 14:00-16:00,43.78251,1.3590892,43.7333031,-0.8741611
739250,Neuvy (FR41),Garches (FR92),22/03/2024 à 10:00,22/03/2024 à 16:00 Rdv 14:00-16:00,48.7469304,3.5177618,48.8437486,2.1853699
739556,Lagnieu (FR01),Genas (FR69),25/03/2024 à 08:30,25/03/2024 à 13:00 Rdv 11:00-13:00,45.9034952,5.3480192,45.7330585,4.9965605
738513,Herent (BE30),Genk (BE36),25/03/2024 à 09:00 Rdv 9:00-11:00,25/03/2024 à 13:00,50.9124734,4.6517147625934285,50.9654864,5.5001456
738686,La hulpe (BE13),Genk (BE36),25/03/2024 à 10:00 Rdv 10:00-12:00,25/03/2024 à 14:00,50.7313729,4.4893987,50.9654864,5.5001456
738333,Aalst (BE93),Genk (BE36),25/03/2024 à 09:00 Rdv 9:00-11:00,25/03/2024 à 14:00,50.9383226,4.0392147,50.9654864,5.5001456
738650,Aalter (BE98),Gent (BE90),20/03/2024 à 09:00,20/03/2024 à 16:00,51.083894,3.4485192,51.0538286,3.7250121
739354,Braine-le-château (BE14),Gent (BE90),26/03/2024 à 09:00,26/03/2024 à 12:00,50.6827864,4.2669864,51.0538286,3.7250121
739154,Jaux (FR60),Gradignan (FR33),21/03/2024 à 10:00,21/03/2024 à 17:30,49.3881042,2.7765151,44.7739701,-0.613907
739431,La norville (FR91),Grand-couronne (FR76),26/03/2024 à 09:00,26/03/2024 à 12:00,48.5856753,2.2583893,49.3534994,1.0043489
739521,Grand-couronne (FR76),Grande-synthe (FR59),21/03/2024 à 09:00,21/03/2024 à 14:00,49.3534994,1.0043489,51.0134813,2.3029972
739267,Seyssins (FR38),Grenoble (FR38),22/03/2024 à 10:30 Rdv 10:30-11:30,22/03/2024 à 12:30 Rdv 11:30-12:30,45.1593057,5.6878134,45.1875602,5.7357819
739127,Villefranche-sur-saône (FR69),Gruffy (FR74),25/03/2024 à 08:45,25/03/2024 à 15:45 Rdv 14:45-15:45,0.0,0.0,45.7870679,6.055331
739529,Amfreville (FR14),Guyancourt (FR78),29/03/2024 à 13:00 Rdv 13:00-14:00,29/03/2024 à 16:30 Rdv 15:30-16:30,0.0,0.0,48.7709414,2.0706084
736929,Wavrin (FR59),Halluin (FR59),25/03/2024 à 08:30,25/03/2024 à 13:00 Rdv 11:00-13:00,50.570559,2.932545,50.7826693,3.1249234
737259,Wavrin (FR59),Hellemmes-lille (FR59),21/03/2024 à 08:30,21/03/2024 à 12:00 Rdv 10:00-12:00,50.570559,2.932545,0.0,0.0
738604,Carrières-sous-poissy (FR78),Issy-les-moulineaux (FR92),21/03/2024 à 08:30,21/03/2024 à 12:00 Rdv 10:00-12:00,48.9437694,2.0341747,48.8250508,2.273457
739069,Beringen (BE35),Jette (BE10),20/03/2024 à 09:30,20/03/2024 à 14:30,51.0489641,5.2266869,50.8759585,4.3245702
739399,Machelen (BE18),Kampenhout (BE19),20/03/2024 à 08:00,20/03/2024 à 16:00 Rdv 8:45-16:00,50.903150350789616,4.449248232844452,50.94924405,4.571163087369371
738826,Hasselt (BE35),Kortenberg (BE30),25/03/2024 à 13:00,25/03/2024 à 15:45 Rdv 14:15-15:45,50.9303735,5.3378043,50.8953581,4.565683393303372
735767,Asse (BE17),Kruibeke (BE91),25/03/2024 à 10:00,25/03/2024 à 15:00,50.9094333,4.2015646,51.17625475,4.298036873275151
737109,Aubière (FR63),La chapelle-d\'aurec (FR43),03/04/2024 à 08:30,03/04/2024 à 12:00 Rdv 11:00-12:00,45.7512575,3.1144195,45.3355965,4.2072832
739467,Saint-aubin-du-cormier (FR35),La chapelle-des-fougeretz (FR35),26/03/2024 à 14:00 Rdv 14:00-16:00,26/03/2024 à 16:30,48.2577823,-1.4024515,48.178066,-1.7341163
736382,Châteauneuf-de-gadagne (FR84),La roche-de-glun (FR26),25/03/2024 à 11:00 Rdv 11:00-13:00,25/03/2024 à 16:00,43.927603,4.9442687,45.0133527,4.8443331
738757,Clarensac (FR30),La roche-de-glun (FR26),22/03/2024 à 15:30,23/03/2024 à 15:30,43.8266904,4.2176541,45.0133527,4.8443331
738501,Puget (FR84),La roche-de-glun (FR26),03/04/2024 à 14:30,04/04/2024 à 16:30,43.7551285,5.2695519,45.0133527,4.8443331
737179,Bassens (FR33),La roche-sur-yon (FR85),27/03/2024 à 09:00,27/03/2024 à 12:00,44.9015003,-0.5163222,46.6705431,-1.4269698
736936,Montpellier (FR34),Lattes (FR34),15/04/2024 à 07:30 Rdv 7:30-8:30,15/04/2024 à 09:00,43.6112422,3.8767337,43.5653993,3.9017114
734195,Villevêque (FR49),Laval (FR53),22/03/2024 à 08:30,22/03/2024 à 12:00 Rdv 10:00-12:00,47.5601026,-0.4230772,48.0706687,-0.7734022
734193,Villevêque (FR49),Laval (FR53),26/03/2024 à 08:30,26/03/2024 à 12:00 Rdv 10:00-12:00,47.5601026,-0.4230772,48.0706687,-0.7734022
738446,Bezannes (FR51),Laxou (FR54),25/03/2024 à 10:45 Rdv 10:45-12:00,25/03/2024 à 17:30 Rdv 16:00-17:30,0.0,0.0,0.0,0.0
738310,Mauron (FR56),Le cellier (FR44),22/03/2024 à 12:00,22/03/2024 à 15:30,48.0829709,-2.2850738,47.3186735,-1.3465357
739314,Carquefou (FR44),Le cellier (FR44),25/03/2024 à 10:00 Rdv 10:00-12:00,25/03/2024 à 16:00,47.2971979,-1.4921233,47.3186735,-1.3465357
736449,Mende (FR48),Le controis-en-sologne (FR41),20/03/2024 à 10:00,20/03/2024 à 18:00,44.5180226,3.4991057,47.4334729,1.3497811449782977
739568,Loeches (ES28),Lepe (ES21),21/03/2024 à 09:00,21/03/2024 à 19:00,40.3837901,-3.4092281,0.0,0.0
738700,Forbach (FR57),Les alleuds (FR49),02/04/2024 à 09:55,03/04/2024 à 12:00 Rdv 10:00-12:00,49.1862822,6.8958562,47.31614075,-0.4151700234719045
730524,La chapelle-des-fougeretz (FR35),Les andelys (FR27),20/03/2024 à 09:00,20/03/2024 à 15:00 Rdv 14:00-15:00,48.178066,-1.7341163,49.2469193,1.4215534
736406,Avrigny (FR60),Les moeres (FR59),20/03/2024 à 11:00,20/03/2024 à 17:00 Rdv 15:00-17:00,49.3817833,2.57932,51.0252259,2.544951173409596
736446,Locquignol (FR59),Lieu-saint-amand (FR59),25/03/2024 à 12:00 Rdv 12:00-14:00,25/03/2024 à 16:00,50.1987695,3.7169331,50.2729141,3.3461187
734253,Wavrin (FR59),Lille (FR59),09/04/2024 à 08:30,09/04/2024 à 12:00 Rdv 10:00-12:00,50.570559,2.932545,50.6365654,3.0635282
739554,Fontaine-le-comte (FR86),Limoges (FR87),29/03/2024 à 14:00 Rdv 14:00-16:00,30/03/2024 à 10:00,0.0,0.0,45.8354243,1.2644847
738282,Boisseuil (FR87),Limoges (FR87),04/04/2024 à 15:30,05/04/2024 à 15:30,45.7699722,1.3307721,45.8354243,1.2644847
736580,Bassens (FR33),Limoges (FR87),22/03/2024 à 08:30,22/03/2024 à 14:00 Rdv 12:00-14:00,44.9015003,-0.5163222,45.8354243,1.2644847
736581,Limoges (FR87),Limoges (FR87),22/03/2024 à 12:00 Rdv 12:00-14:00,22/03/2024 à 16:00,45.8354243,1.2644847,45.8354243,1.2644847
739414,Quincieux (FR69),Lissieu (FR69),26/03/2024 à 09:00,26/03/2024 à 11:00 Rdv 9:00-11:00,45.90900965105747,4.762067991264464,45.8652176,4.742215
738200,Montauban-de-bretagne (FR35),Locmine (FR56),02/04/2024 à 12:57,02/04/2024 à 16:00 Rdv 14:00-16:00,48.1998838,-2.0462319,47.8874274,-2.8362402
736445,Wavrin (FR59),Locquignol (FR59),25/03/2024 à 08:30,25/03/2024 à 14:00 Rdv 12:00-14:00,50.570559,2.932545,50.1987695,3.7169331
739447,Orvault (FR44),Lons (FR64),25/03/2024 à 09:00,25/03/2024 à 17:00 Rdv 15:00-17:00,-1.6194319725,47.2511912196,46.6727037,5.5589973
739311,Montoir-de-bretagne (FR44),Lorient (FR56),22/03/2024 à 08:30,22/03/2024 à 12:00,47.3285909,-2.1543171,47.7477336,-3.3660907
739220,Mazagon (ES21),"Luisiana, la (ES41)",22/03/2024 à 10:00 Rdv 10:00-12:00,22/03/2024 à 14:00,0.0,0.0,303891.0,-9383689.0
739064,Mechelen (BE28),Machelen (BE18),21/03/2024 à 09:00,21/03/2024 à 15:30 Rdv 9:45-15:30,51.0281381,4.4803453,50.903150350789616,4.449248232844452
739074,Mechelen (BE28),Machelen (BE18),21/03/2024 à 09:00,21/03/2024 à 15:30 Rdv 9:45-15:30,51.0281381,4.4803453,50.903150350789616,4.449248232844452
739063,Mechelen (BE28),Machelen (BE18),21/03/2024 à 09:00,21/03/2024 à 15:30 Rdv 9:45-15:30,51.0281381,4.4803453,50.903150350789616,4.449248232844452
737552,Guyancourt (FR78),Marseille (FR13),01/04/2024 à 09:30 Rdv 9:30-10:30,02/04/2024 à 11:00,48.7709414,2.0706084,43.2961743,5.3699525
737997,Miramas (FR13),Marseille (FR13),21/03/2024 à 08:30,21/03/2024 à 15:00 Rdv 13:00-15:00,43.582733,5.0025809,43.2961743,5.3699525
738592,Nice (FR06),Marseille (FR13),22/03/2024 à 08:00,22/03/2024 à 12:30,43.7009358,7.2683912,43.2961743,5.3699525
738277,Bassens (FR33),Martillac (FR33),20/03/2024 à 08:30,20/03/2024 à 12:00 Rdv 10:00-12:00,44.9015003,-0.5163222,44.7141704,-0.5422302
736520,Bassens (FR33),Martillac (FR33),20/03/2024 à 08:30,20/03/2024 à 12:00 Rdv 10:00-12:00,44.9015003,-0.5163222,44.7141704,-0.5422302
738309,Le cellier (FR44),Mauron (FR56),22/03/2024 à 09:00,22/03/2024 à 12:00,47.3186735,-1.3465357,48.0829709,-2.2850738
739452,Machelen (BE18),Mechelen (BE28),27/03/2024 à 08:00,27/03/2024 à 17:00 Rdv 10:00-17:00,50.903150350789616,4.449248232844452,51.0281381,4.4803453
739122,Jaux (FR60),Metz (FR57),21/03/2024 à 10:00,21/03/2024 à 17:00,49.3881042,2.7765151,49.1196964,6.1763552
736362,Salon de provence (FR13),Meyreuil (FR13),08/04/2024 à 09:00,08/04/2024 à 15:00,43.6405237,5.0980225,43.4867359,5.4952155
737823,Cormontreuil (FR51),Mitry-mory (FR77),04/04/2024 à 10:00,04/04/2024 à 15:00,0.0,0.0,48.9839674,2.6183971
738605,Issy-les-moulineaux (FR92),Mitry-mory (FR77),21/03/2024 à 10:00 Rdv 10:00-12:00,21/03/2024 à 16:00,48.8250508,2.273457,48.9839674,2.6183971
739485,Chatou (FR78),Mitry-mory (FR77),25/03/2024 à 11:00 Rdv 11:00-13:00,25/03/2024 à 16:00,48.8897044,2.1573695,48.9839674,2.6183971
739332,Paris (FR75),Mitry-mory (FR77),25/03/2024 à 10:00 Rdv 10:00-12:00,25/03/2024 à 16:45,48.8534951,2.3483915,48.9839674,2.6183971
738845,Écrouves (FR54),Molsheim (FR67),22/03/2024 à 14:00 Rdv 14:00-16:00,23/03/2024 à 12:00,48.6794767,5.8399328,48.5419351,7.4924679
738906,Gellainville (FR28),Montauban (FR82),18/03/2024 à 08:30,20/03/2024 à 11:00,0.0,0.0,44.0175835,1.3549991
737825,Noyal-sur-vilaine (FR35),Montauban-de-bretagne (FR35),22/03/2024 à 15:00 Rdv 15:00-17:00,22/03/2024 à 18:00,48.1140789,-1.5234735,48.1998838,-2.0462319
737400,Antony (FR92),Montauban-de-bretagne (FR35),26/03/2024 à 10:00 Rdv 10:00-12:00,26/03/2024 à 16:00,48.753554,2.2959423,48.1998838,-2.0462319
738724,Villennes-sur-seine (FR78),Montauban-de-bretagne (FR35),21/03/2024 à 09:00 Rdv 9:00-11:00,21/03/2024 à 15:00,48.9404491,1.9987648,48.1998838,-2.0462319
736422,Les moeres (FR59),Montauban-de-bretagne (FR35),20/03/2024 à 15:00 Rdv 15:00-17:00,21/03/2024 à 15:00,51.0252259,2.544951173409596,48.1998838,-2.0462319
738712,Boulogne billancourt (FR92),Montauban-de-bretagne (FR35),21/03/2024 à 14:00 Rdv 14:00-16:00,22/03/2024 à 12:00,48.8356649,2.240206,48.1998838,-2.0462319
739492,Flins-sur-seine (FR78),Montigny-lès-cormeilles (FR95),22/03/2024 à 08:00,22/03/2024 à 12:00,48.9623407,1.8684146,0.0,0.0
736119,Miramas (FR13),Montpellier (FR34),10/04/2024 à 08:30,10/04/2024 à 11:00 Rdv 9:00-11:00,43.582733,5.0025809,43.6112422,3.8767337
736937,Lattes (FR34),Montpellier (FR34),15/04/2024 à 15:30 Rdv 15:30-16:30,15/04/2024 à 17:00,43.5653993,3.9017114,43.6112422,3.8767337
736111,Miramas (FR13),Montpellier (FR34),10/04/2024 à 08:30,10/04/2024 à 16:00 Rdv 14:00-16:00,43.582733,5.0025809,43.6112422,3.8767337
738575,Donzère (FR26),Montélimar (FR26),21/03/2024 à 12:00,22/03/2024 à 18:00,44.4442014,4.7073439,44.5579391,4.750318
738153,Donzère (FR26),Montélimar (FR26),25/03/2024 à 08:00,25/03/2024 à 12:00,44.4442014,4.7073439,44.5579391,4.750318
739563,Sélestat (FR67),Mulhouse (FR68),25/03/2024 à 09:00,25/03/2024 à 12:00,0.0,0.0,47.7467233,7.3389937
737466,Toulouse (FR31),Mur-de-barrez (FR12),25/03/2024 à 15:00,26/03/2024 à 15:00 Rdv 14:00-15:00,43.6044622,1.4442469,44.8416264,2.6635471
735932,Le bouscat (FR33),Mérignac (FR33),26/03/2024 à 09:00,26/03/2024 à 12:00 Rdv 10:00-12:00,44.8661755,-0.5992399,44.842168,-0.6469022
739111,Flins-sur-seine (FR78),Nanterre (FR92),26/03/2024 à 08:00,26/03/2024 à 12:00,48.9623407,1.8684146,48.8924273,2.2071267
738735,Niort (FR79),Nantes (FR44),26/03/2024 à 08:30 Rdv 8:30-9:30,26/03/2024 à 12:00 Rdv 11:00-12:00,46.3239233,-0.4646064,47.2186371,-1.5541362
739031,Montoir-de-bretagne (FR44),Nantes (FR44),22/03/2024 à 08:30,22/03/2024 à 15:00 Rdv 13:00-15:00,47.3285909,-2.1543171,47.2186371,-1.5541362
739383,Niort (FR79),Nantes (FR44),22/03/2024 à 10:45 Rdv 10:45-11:45,22/03/2024 à 15:00 Rdv 14:00-15:00,46.3239233,-0.4646064,47.2186371,-1.5541362
738287,Niort (FR79),Nantes (FR44),25/03/2024 à 08:30 Rdv 8:30-9:30,25/03/2024 à 12:00 Rdv 11:00-12:00,46.3239233,-0.4646064,47.2186371,-1.5541362
738593,Marseille (FR13),Nice (FR06),22/03/2024 à 12:30,22/03/2024 à 16:00,43.2961743,5.3699525,43.7009358,7.2683912
738424,Ambarès-et-lagrave (FR33),Nieul le dolent (FR85),21/03/2024 à 10:00,21/03/2024 à 16:00 Rdv 15:00-16:00,44.9259011,-0.4881846,46.5745648,-1.5077617
738288,Nantes (FR44),Niort (FR79),25/03/2024 à 11:00 Rdv 11:00-12:00,25/03/2024 à 16:45 Rdv 15:45-16:45,47.2186371,-1.5541362,46.3239233,-0.4646064
738736,Nantes (FR44),Niort (FR79),26/03/2024 à 11:00 Rdv 11:00-12:00,26/03/2024 à 16:00 Rdv 15:00-16:00,47.2186371,-1.5541362,46.3239233,-0.4646064
739384,Nantes (FR44),Niort (FR79),22/03/2024 à 14:00 Rdv 14:00-15:00,22/03/2024 à 17:30 Rdv 16:30-17:30,47.2186371,-1.5541362,46.3239233,-0.4646064
737391,La norville (FR91),Normanville (FR27),08/04/2024 à 08:30,08/04/2024 à 12:00 Rdv 10:00-12:00,48.5856753,2.2583893,49.6948768,0.5941406
738581,Trappes (FR78),Nîmes (FR30),26/03/2024 à 10:00 Rdv 10:00-12:00,27/03/2024 à 10:00,48.7760957,1.9988356,43.8374249,4.3600687
738885,Salon-de-provence (FR13),Nîmes (FR30),21/03/2024 à 14:00,21/03/2024 à 16:30,43.6405237,5.0980225,43.8374249,4.3600687
739182,Entzheim (FR67),Oberhausbergen (FR67),08/04/2024 à 09:00,08/04/2024 à 12:00 Rdv 10:00-12:00,48.5346177,7.6358832,48.6056872,7.6857854
737802,Berck (FR62),Olivet (FR45),03/04/2024 à 09:30,03/04/2024 à 15:00,0.0,0.0,47.8650984,1.9015752
739350,Zaragoza (ES50),Olmedo (ES47),21/03/2024 à 13:15,21/03/2024 à 20:00 Rdv 19:00-20:00,41.6521342,-0.8809428,41.2870983,-4.68669
739061,Flins-sur-seine (FR78),Orléans (FR45),21/03/2024 à 08:00,21/03/2024 à 12:00 Rdv 10:15-12:00,48.9623407,1.8684146,47.9027336,1.9086066
737564,Brive-la-gaillarde (FR19),Orvault (FR44),20/03/2024 à 14:00,22/03/2024 à 14:00,45.1584982,1.5332389,-1.6194319725,47.2511912196
739448,Lons (FR64),Orvault (FR44),25/03/2024 à 15:00 Rdv 15:00-17:00,26/03/2024 à 15:00,46.6727037,5.5589973,-1.6194319725,47.2511912196
739465,Toulouse (FR31),Orvault (FR44),25/03/2024 à 15:00 Rdv 15:00-17:00,26/03/2024 à 15:00,43.6044622,1.4442469,-1.6194319725,47.2511912196
738354,Bourges (FR18),Parcay meslay (FR37),22/03/2024 à 14:00 Rdv 14:00-16:00,22/03/2024 à 17:00,47.0811658,2.399125,47.4413885,0.7456752
739331,La norville (FR91),Paris (FR75),25/03/2024 à 08:00,25/03/2024 à 12:00 Rdv 10:00-12:00,48.5856753,2.2583893,48.8534951,2.3483915
732714,Montauban-de-bretagne (FR35),Pleudihen-sur-rance (FR22),15/04/2024 à 09:00,15/04/2024 à 11:00 Rdv 9:00-11:00,48.1998838,-2.0462319,48.5102781,-1.9510009
737458,Blain (FR44),Poitiers (FR86),22/03/2024 à 14:00 Rdv 14:00-16:00,01/04/2024 à 17:00,47.4755536,-1.7643647,46.5802596,0.340196
734313,Villevêque (FR49),Poitiers (FR86),19/03/2024 à 08:30,19/03/2024 à 13:00 Rdv 11:00-13:00,47.5601026,-0.4230772,46.5802596,0.340196
739229,Aixe-sur-vienne (FR87),Poitiers (FR86),29/03/2024 à 16:00 Rdv 16:00-17:00,01/04/2024 à 09:30 Rdv 8:30-9:30,45.7967581,1.1362125,46.5802596,0.340196
738302,Castelnau-d'estrétefonds (FR31),Poitiers (FR86),22/03/2024 à 08:30,22/03/2024 à 16:00 Rdv 14:00-16:00,43.78251,1.3590892,46.5802596,0.340196
739534,Chartres-de-bretagne (FR35),Pommeret (FR22),22/03/2024 à 08:30,22/03/2024 à 12:00 Rdv 10:00-12:00,48.0432406,-1.7082369,0.0,0.0
739441,St priest (FR69),Pommiers (FR69),02/04/2024 à 09:00,02/04/2024 à 11:00 Rdv 9:00-11:00,45.699911230631024,4.940050948355273,49.3935702,3.2720429
739271,Albertville (FR73),Pont-en-royans (FR38),22/03/2024 à 09:00,22/03/2024 à 12:00,45.6754622,6.3925417,45.0622,5.34251
738738,Avrigny (FR60),Pontfaverger-moronvilliers (FR51),02/04/2024 à 09:00,02/04/2024 à 12:00 Rdv 10:00-12:00,49.3817833,2.57932,49.2973636,4.3174486
738964,Avrigny (FR60),Pontoise (FR95),22/03/2024 à 08:45,22/03/2024 à 12:00 Rdv 10:00-12:00,49.3817833,2.57932,49.0508845,2.1008067
738500,Rivery (FR80),Puget (FR84),02/04/2024 à 15:00,03/04/2024 à 14:30,49.9005828,2.3216925,43.7551285,5.2695519
738018,Miramas (FR13),Pérols (FR34),22/03/2024 à 08:30,22/03/2024 à 12:00 Rdv 10:00-12:00,43.582733,5.0025809,43.5586003,3.9502006
738588,Martin-eglise (FR76),Quincampoix (FR76),03/04/2024 à 09:00,03/04/2024 à 11:30,49.9013442,1.1402861,49.521,1.17464
736492,Ecuisses (FR71),Quincieux (FR69),19/03/2024 à 10:00 Rdv 10:00-12:00,19/03/2024 à 15:00,46.7565885,4.5382451,45.90900965105747,4.762067991264464
734212,Villevêque (FR49),Rennes (FR35),15/04/2024 à 08:30,15/04/2024 à 16:00 Rdv 14:00-16:00,47.5601026,-0.4230772,48.1113387,-1.6800198
734359,Wavrin (FR59),Rennes (FR35),15/04/2024 à 10:00 Rdv 10:00-15:00,16/04/2024 à 11:00 Rdv 9:00-11:00,50.570559,2.932545,48.1113387,-1.6800198
739070,Nice (FR06),Riez (FR04),28/03/2024 à 09:00 Rdv 9:00-10:00,28/03/2024 à 15:00 Rdv 13:00-15:00,43.7009358,7.2683912,43.8176907,6.0930048
738603,Toulouse (FR31),Rivesaltes (FR66),22/03/2024 à 14:00 Rdv 14:00-15:00,22/03/2024 à 16:45,43.6044622,1.4442469,42.7683568,2.8709277
738019,Pérols (FR34),Rivesaltes (FR66),22/03/2024 à 10:00 Rdv 10:00-12:00,22/03/2024 à 16:00,43.5586003,3.9502006,42.7683568,2.8709277
739138,Varetz (FR19),Roullet saint estephe (FR16),18/03/2024 à 10:00,21/03/2024 à 14:00,45.1937382,1.451279,45.5775056,0.0317696053205443
739516,Carrières-sous-poissy (FR78),Rueil-malmaison (FR92),22/03/2024 à 13:45,22/03/2024 à 15:45,48.9437694,2.0341747,48.8791007996,2.17808008194
739057,Flins-sur-seine (FR78),Rungis (FR94),21/03/2024 à 08:00,21/03/2024 à 16:00 Rdv 14:00-16:00,48.9623407,1.8684146,48.7484048,2.3472665
730526,Les andelys (FR27),Saint-aignan-de-grand-lieu (FR44),20/03/2024 à 14:00,21/03/2024 à 16:00,49.2469193,1.4215534,47.1224436,-1.6345992
739137,Nantes (FR44),Saint-aignan-de-grand-lieu (FR44),25/03/2024 à 14:00 Rdv 14:00-16:00,25/03/2024 à 17:00,47.2186371,-1.5541362,47.1224436,-1.6345992
738813,Saint-brevin-les-pins (FR44),Saint-aignan-grandlieu (FR44),27/03/2024 à 10:00 Rdv 10:00-12:00,27/03/2024 à 16:00,47.2473358,-2.1677298,47.124601,-1.630937
738672,Vertou (FR44),Saint-aignan-grandlieu (FR44),22/03/2024 à 12:00 Rdv 12:00-14:00,22/03/2024 à 16:00,47.1685211,-1.4722242,47.124601,-1.630937
727664,Saint-herblain (FR44),Saint-aignan-grandlieu (FR44),10/04/2024 à 14:00 Rdv 14:00-16:00,11/04/2024 à 08:00,47.2238156,-1.6529932,47.124601,-1.630937
739032,Nantes (FR44),Saint-aignan-grandlieu (FR44),22/03/2024 à 13:00 Rdv 13:00-15:00,22/03/2024 à 16:00,47.2186371,-1.5541362,47.124601,-1.630937
739328,Couëron (FR44),Saint-aignan-grandlieu (FR44),27/03/2024 à 09:00 Rdv 9:00-11:00,27/03/2024 à 16:00 Rdv 14:00-16:00,0.0,0.0,47.124601,-1.630937
738730,Castelnau-destrétefonds (FR31),Saint-aubin-du-cormier (FR35),25/03/2024 à 20:57,26/03/2024 à 16:00 Rdv 14:00-16:00,0.0,0.0,48.2577823,-1.4024515
738812,Montoir-de-bretagne (FR44),Saint-brevin-les-pins (FR44),27/03/2024 à 08:30,27/03/2024 à 12:00 Rdv 10:00-12:00,47.3285909,-2.1543171,47.2473358,-2.1677298
735360,Castelnau-d\'estrétefonds (FR31),Saint-cernin-de-larche (FR19),02/04/2024 à 09:00,02/04/2024 à 12:00 Rdv 10:00-12:00,43.78251,1.3590892,45.1030652,1.4144957
739053,Flins-sur-seine (FR78),Saint-cloud (FR92),26/03/2024 à 08:00,26/03/2024 à 12:00 Rdv 9:00-12:00,48.9623407,1.8684146,48.8437412,2.219344
739510,Esvres-sur-indre (FR37),Saint-contest (FR14),25/03/2024 à 09:00,25/03/2024 à 12:00,47.2845819,0.7861713,49.214191,-0.4011923
738227,Seynod (FR74),Saint-etienne (FR42),27/03/2024 à 10:30 Rdv 10:30-11:30,27/03/2024 à 15:00 Rdv 14:00-15:00,45.8880398,6.0992785,45.4401467,4.3873058
727663,Canteleu (FR76),Saint-herblain (FR44),10/04/2024 à 09:00 Rdv 9:00-11:00,10/04/2024 à 16:00 Rdv 14:00-16:00,49.4507987,1.0352069,47.2238156,-1.6529932
739567,Nantes (FR44),Saint-herblain (FR44),25/03/2024 à 14:00,25/03/2024 à 14:45,47.2186371,-1.5541362,47.2238156,-1.6529932
736687,Champniers (FR16),Saint-jean-d\'illac (FR33),25/03/2024 à 08:30,25/03/2024 à 11:30,45.7145725,0.2050544,44.8101856,-0.7815257
738359,Butry-sur-oise (FR95),Saint-quentin (FR02),22/03/2024 à 14:00,22/03/2024 à 16:00 Rdv 14:00-16:00,49.0856723,2.1979556,49.8465253,3.2876843
738051,Chaponost (FR69),Saint-vulbas (FR01),25/03/2024 à 11:00 Rdv 11:00-13:00,25/03/2024 à 16:00,0.0,0.0,45.8306,5.28959
739092,Colombier-saugnieu (FR69),Saint-vulbas (FR01),22/03/2024 à 15:00,22/03/2024 à 17:00,45.7113787,5.1119241,45.8306,5.28959
736341,Miramas (FR13),Salon de provence (FR13),08/04/2024 à 08:00,08/04/2024 à 11:00 Rdv 9:00-11:00,43.582733,5.0025809,43.6405237,5.0980225
739508,Flins-sur-seine (FR78),Saran (FR45),22/03/2024 à 08:00,22/03/2024 à 12:00,48.9623407,1.8684146,47.9494039,1.8764209
739392,Trélissac (FR24),Savigny-le-temple (FR77),21/03/2024 à 09:00,22/03/2024 à 18:00 Rdv 14:00-18:00,45.1970172,0.7835042,48.5958681,2.5798953
739221,Illkirch-graffenstaden (FR67),Seltz (FR67),25/03/2024 à 14:00,25/03/2024 à 15:30,48.5298611,7.7116218,48.8920496,8.1067978
738917,Wilrijk (BE26),Sint-katelijne-waver (BE28),22/03/2024 à 08:30,22/03/2024 à 11:30 Rdv 9:30-11:30,51.1700864,4.3942577,51.0699542,4.532238
739344,Zaventem (BE19),Sint-lambrechts-woluwe (BE12),26/03/2024 à 11:00,26/03/2024 à 16:00 Rdv 14:00-16:00,50.8806207,4.4730008,50.8430448,4.4256732
732473,Watermael-boitsfort (BE11),Sint-niklaas (BE91),08/03/2024 à 09:30,20/03/2024 à 15:30,50.7981063,4.4176441,51.1646685,4.1395124
738585,Saint-georges-d'esperanche (FR38),St priest (FR69),20/03/2024 à 09:00,20/03/2024 à 17:00,45.5574829,5.0808076,45.699911230631024,4.940050948355273
738601,Villeurbanne (FR69),St priest (FR69),25/03/2024 à 14:00 Rdv 14:00-16:00,25/03/2024 à 16:30,45.7733573,4.8868454,45.699911230631024,4.940050948355273
735381,Villevêque (FR49),Sèvremoine (FR49),25/03/2024 à 08:30,25/03/2024 à 13:00 Rdv 11:00-13:00,47.5601026,-0.4230772,47.08775155,-1.0821288289702786
738374,Montoir-de-bretagne (FR44),Theix-noyalo (FR56),22/03/2024 à 08:00,22/03/2024 à 12:00 Rdv 10:00-12:00,47.3285909,-2.1543171,47.63049455,-2.637546715043245
739475,Orvault (FR44),Toulouse (FR31),25/03/2024 à 09:00,25/03/2024 à 17:00 Rdv 15:00-17:00,-1.6194319725,47.2511912196,43.6044622,1.4442469
739407,Bassens (FR33),Toulouse (FR31),26/03/2024 à 11:30,26/03/2024 à 16:00,44.9015003,-0.5163222,43.6044622,1.4442469
738602,Nice (FR06),Toulouse (FR31),22/03/2024 à 08:00,22/03/2024 à 15:00 Rdv 14:00-15:00,43.7009358,7.2683912,43.6044622,1.4442469
738580,Nîmes (FR30),Trappes (FR78),25/03/2024 à 09:00,26/03/2024 à 12:00 Rdv 10:00-12:00,43.8374249,4.3600687,48.7760957,1.9988356
737836,Bourges (FR18),Val-fouzon (FR36),21/03/2024 à 08:00,21/03/2024 à 10:00,47.0811658,2.399125,47.20631435,1.615102318761384
737801,Ozoir-la-ferrière (FR77),Valenton (FR94),01/04/2024 à 09:00,01/04/2024 à 11:30,48.7620904,2.6719421,48.7443189,2.4699741
737575,Avrigny (FR60),Valff (FR67),25/03/2024 à 09:00,25/03/2024 à 17:00 Rdv 15:00-17:00,49.3817833,2.57932,48.4222377,7.5227937
734992,Le mans (FR72),Varaville (FR14),21/03/2024 à 10:45,21/03/2024 à 18:00 Rdv 17:00-18:00,48.0073849,0.1967849,49.253386,-0.1582652
739261,Algete (ES28),Velilla de san antonio (ES28),25/03/2024 à 09:00,25/03/2024 à 12:00 Rdv 10:00-12:00,40.5961652,-3.4974246,40.367166,-3.4874435
736930,Halluin (FR59),Vendin-lès-béthune (FR62),25/03/2024 à 11:00 Rdv 11:00-13:00,25/03/2024 à 16:00,50.7826693,3.1249234,50.548777,2.6008182
739562,Tours (FR37),Vertou (FR44),21/03/2024 à 10:00 Rdv 10:00-11:00,21/03/2024 à 15:00,0.0,0.0,47.1685211,-1.4722242
738671,Montoir-de-bretagne (FR44),Vertou (FR44),22/03/2024 à 08:30,22/03/2024 à 14:00 Rdv 12:00-14:00,47.3285909,-2.1543171,47.1685211,-1.4722242
739128,Gruffy (FR74),Villefranche-sur-saône (FR69),25/03/2024 à 14:45 Rdv 14:45-15:45,26/03/2024 à 11:30,45.7870679,6.055331,0.0,0.0
738778,Avion (FR62),Villeneuve-d\'ascq (FR59),22/03/2024 à 10:45,22/03/2024 à 14:00 Rdv 12:00-14:00,50.4126128,2.8343891,50.6193174,3.1314002
737815,Wambrechies (FR59),Villeneuve-d\'ascq (FR59),03/04/2024 à 15:00,03/04/2024 à 16:30,50.6861944,3.0521806,50.6193174,3.1314002
738716,Avrigny (FR60),Villennes-sur-seine (FR78),21/03/2024 à 09:00,21/03/2024 à 11:00 Rdv 9:00-11:00,49.3817833,2.57932,48.9404491,1.9987648
737921,Miramas (FR13),Villeurbanne (FR69),25/03/2024 à 10:00,25/03/2024 à 16:00 Rdv 14:00-16:00,43.582733,5.0025809,45.7733573,4.8868454
739533,Romorantin-lanthenay (FR41),Villevêque (FR49),21/03/2024 à 09:00 Rdv 9:00-11:00,21/03/2024 à 16:00,47.3592182,1.7434925,47.5601026,-0.4230772
735007,Bron (FR69),Viry-châtillon (FR91),22/03/2024 à 08:30,22/03/2024 à 18:00 Rdv 16:00-18:00,45.7337532,4.9092352,0.0,0.0
739418,Reims (FR51),Vitrolles (FR13),21/03/2024 à 17:00,22/03/2024 à 11:00,49.2577886,4.031926,44.4347105,5.9496043
739084,Vinzier (FR74),Vénissieux (FR69),04/04/2024 à 09:00,04/04/2024 à 14:00,46.3510123,6.6192315,45.6977109,4.8855966
739081,Vinzier (FR74),Vénissieux (FR69),04/04/2024 à 09:00,04/04/2024 à 14:00,46.3510123,6.6192315,45.6977109,4.8855966
739079,Vinzier (FR74),Vénissieux (FR69),04/04/2024 à 09:00,04/04/2024 à 14:00,46.3510123,6.6192315,45.6977109,4.8855966
738410,Marignier (FR74),Vénissieux (FR69),04/04/2024 à 09:00,04/04/2024 à 11:30,46.0903808,6.4992902,45.6977109,4.8855966
735591,Marignier (FR74),Vénissieux (FR69),27/03/2024 à 09:00,27/03/2024 à 11:30,46.0903808,6.4992902,45.6977109,4.8855966
739082,Vinzier (FR74),Vénissieux (FR69),04/04/2024 à 09:00,04/04/2024 à 14:00,46.3510123,6.6192315,45.6977109,4.8855966
737814,Berck (FR62),Wambrechies (FR59),03/04/2024 à 09:30,03/04/2024 à 15:00,0.0,0.0,50.6861944,3.0521806
739288,Mechelen (BE28),Waregem (BE87),22/03/2024 à 08:30,22/03/2024 à 15:00,51.0281381,4.4803453,50.8868222,3.4323622
739290,Mechelen (BE28),Waregem (BE87),22/03/2024 à 08:30,22/03/2024 à 15:00,51.0281381,4.4803453,50.8868222,3.4323622
738918,Sint-katelijne-waver (BE28),Wilrijk (BE26),22/03/2024 à 09:30 Rdv 9:30-11:30,25/03/2024 à 09:30,51.0699542,4.532238,51.1700864,4.3942577
737952,Rivery (FR80),Wintzenheim (FR68),01/04/2024 à 16:00,02/04/2024 à 10:00,49.9005828,2.3216925,48.0724515,7.2925545
739449,Zaventem (BE19),Woluwe-saint-lambert (BE12),26/04/2024 à 12:00,26/04/2024 à 17:00 Rdv 15:00-17:00,50.8806207,4.4730008,50.8430448,4.4256732
739120,Aalst (BE93),Zottegem (BE96),22/04/2024 à 10:00,22/04/2024 à 14:00,50.9383226,4.0392147,50.864231200000006,3.810268614570032
733982,Zwijndrecht (BE20),Zwijndrecht (BE20),04/04/2024 à 09:00 Rdv 9:00-10:00,04/04/2024 à 12:00 Rdv 11:00-12:00,51.8162227,4.6405166,51.8162227,4.6405166
738739,Mechelen (BE28),Zwijndrecht (BE20),25/03/2024 à 08:00,25/03/2024 à 16:00,51.0281381,4.4803453,51.8162227,4.6405166
738741,Mechelen (BE28),Zwijndrecht (BE20),25/03/2024 à 08:00,25/03/2024 à 16:00,51.0281381,4.4803453,51.8162227,4.6405166
