IDtrajet,Ville de Départ,Ville d'arrivée,A partir du,Jusqu'au,Départ_Latitude,Départ_Longitude,Arrivé_Latitude,Arrivé_Longitude
732557,Corbas (FR69),Aix-en-provence (FR13),18/03/2024 à 08:30,18/03/2024 à 14:00 Rdv 12:00-14:00,45.6662663,4.9015205,43.5298424,5.4474738
736528,Pinoso (ES03),Alacant (ES03),14/03/2024 à 12:00 Rdv 12:00-13:00,14/03/2024 à 16:00,38.4021056,-1.041617,38.3436365,-0.4881708
736320,Murcia (ES30),Alicante-alacant (ES03),15/03/2024 à 12:00 Rdv 12:00-13:00,15/03/2024 à 14:30,37.9923795,-1.1305431,38.3436365,-0.4881708
735933,Mérignac (FR33),Ambarès-et-lagrave (FR33),26/03/2024 à 10:00 Rdv 10:00-12:00,26/03/2024 à 12:00,44.842168,-0.6469022,44.9259011,-0.4881846
736243,Blanquefort (FR33),Ambarès-et-lagrave (FR33),18/03/2024 à 10:00 Rdv 10:00-12:00,18/03/2024 à 13:00,44.9088982,-0.6300363,44.9259011,-0.4881846
736118,Toulon (FR83),Ambérieu-en-bugey (FR01),18/03/2024 à 11:30 Rdv 11:30-13:30,18/03/2024 à 16:00,43.13384507846755,5.930004113739942,45.9584309,5.3595099
734252,Besançon (FR25),Ambérieu-en-bugey (FR01),18/03/2024 à 10:00 Rdv 10:00-12:00,18/03/2024 à 16:00,47.24267101995112,6.009830063015576,45.9584309,5.3595099
734065,Mende (FR48),Ambérieu-en-bugey (FR01),11/04/2024 à 10:00 Rdv 10:00-12:00,11/04/2024 à 16:00,44.5180226,3.4991057,45.9584309,5.3595099
735453,Montbonnot saint martin (FR38),Ambérieu-en-bugey (FR01),01/04/2024 à 13:00 Rdv 13:00-15:00,01/04/2024 à 17:00,45.2264498,5.80266,45.9584309,5.3595099
734268,Grenoble (FR38),Ambérieu-en-bugey (FR01),26/03/2024 à 10:00 Rdv 10:00-12:00,26/03/2024 à 16:00,45.1875602,5.7357819,45.9584309,5.3595099
734122,Clermont-ferrand (FR63),Ambérieu-en-bugey (FR01),12/03/2024 à 14:00 Rdv 14:00-16:00,13/03/2024 à 12:00,45.7774551,3.0819427,45.9584309,5.3595099
736146,Montceau-les-mines (FR71),Ambérieu-en-bugey (FR01),20/03/2024 à 09:00 Rdv 9:00-11:00,20/03/2024 à 16:00,46.6740455,4.3631681,45.9584309,5.3595099
736110,Avignon (FR84),Ambérieu-en-bugey (FR01),19/03/2024 à 13:00 Rdv 13:00-15:00,19/03/2024 à 16:00,4.87174987793,43.9343986511,45.9584309,5.3595099
736600,Seraing (BE41),Antwerpen (BE20),15/03/2024 à 09:00,15/03/2024 à 15:00,50.6152381,5.5089437,51.2211097,4.3997081
734701,Leuven (BE30),Antwerpen (BE20),11/03/2024 à 09:00,14/03/2024 à 15:00,50.879202,4.7011675,51.2211097,4.3997081
729018,Herve (BE46),Antwerpen (BE20),11/03/2024 à 09:00,18/03/2024 à 15:00,50.63916,5.7931012,51.2211097,4.3997081
736603,Seraing (BE41),Antwerpen (BE20),15/03/2024 à 09:00,15/03/2024 à 15:00,50.6152381,5.5089437,51.2211097,4.3997081
733180,Namur (BE51),Antwerpen (BE20),07/03/2024 à 09:00,13/03/2024 à 15:00,50.4665284,4.8661892,51.2211097,4.3997081
736626,Waterloo (BE14),Antwerpen (BE20),15/03/2024 à 09:00,15/03/2024 à 15:00,42.498275,-92.3328743,51.2211097,4.3997081
736273,Lormont (FR33),Arc-et-senans (FR25),19/03/2024 à 09:00,20/03/2024 à 12:00,-0.5182007,44.876407,5.77872991562,47.0317001343
736244,Cran-gevrier (FR74),Archamps (FR74),18/03/2024 à 09:00,18/03/2024 à 11:00 Rdv 9:00-11:00,45.9079102,6.106538,46.1354538,6.1332458
736109,Miramas (FR13),Avignon (FR84),19/03/2024 à 08:30,19/03/2024 à 15:00 Rdv 13:00-15:00,43.582733,5.0025809,4.87174987793,43.9343986511
735297,St christophe sur conde (FR27),Avrigny (FR60),19/03/2024 à 15:00 Rdv 15:00-17:00,20/03/2024 à 11:00,49.2850151288818,0.6008015792494854,49.3817833,2.57932
733725,Villers guislain (FR59),Avrigny (FR60),12/03/2024 à 14:00 Rdv 14:00-17:00,13/03/2024 à 10:20,50.0377421,3.1519281,49.3817833,2.57932
736189,Arras (FR62),Bailly-romainvilliers (FR77),22/03/2024 à 09:00,22/03/2024 à 11:00,50.290277,2.776273,2.8247398,48.8471425
736240,Toulouse (FR31),Balma (FR31),18/03/2024 à 10:00,18/03/2024 à 16:00 Rdv 15:00-16:00,43.6044622,1.4442469,43.6259022,1.4853573
736522,Saint-magne-de-castillon (FR33),Bassens (FR33),27/03/2024 à 09:00,27/03/2024 à 11:00,44.8640404,-0.0686049,44.9015003,-0.5163222
736225,Gradignan (FR33),Bassens (FR33),21/03/2024 à 12:00 Rdv 12:00-14:00,21/03/2024 à 14:15,44.7739701,-0.613907,44.9015003,-0.5163222
736614,Le chateau d'oleron (FR17),Bassens (FR33),24/04/2024 à 09:00,24/04/2024 à 11:30,45.8866143,-1.1953301,44.9015003,-0.5163222
736546,Nice (FR06),Baume-les-dames (FR25)      2,19/03/2024 à 14:30,20/03/2024 à 12:00 Rdv 8:30-12:00,43.7009358,7.2683912,0.0,0.0
735866,Bonneuil-sur-marne (FR94),Beauvais (FR60),19/03/2024 à 10:00 Rdv 10:00-12:00,19/03/2024 à 17:30,48.7737116,2.4869009,49.4300997,2.0823355
735430,Villeneuve-d\'ascq (FR59),Beauvais (FR60),13/03/2024 à 18:00,13/03/2024 à 19:00 Rdv 18:00-19:00,50.6193174,3.1314002,49.4300997,2.0823355
734251,Ambérieu-en-bugey (FR01),Besançon (FR25),18/03/2024 à 08:30,18/03/2024 à 12:00 Rdv 10:00-12:00,45.9584309,5.3595099,47.24267101995112,6.009830063015576
736043,Bourges (FR18),Bessines-sur-gartempe (FR87),15/03/2024 à 08:00,15/03/2024 à 12:00,47.0811658,2.399125,46.1090993,1.3685926
733138,Toulouse (FR31),Blagnac (FR31),19/03/2024 à 10:00 Rdv 10:00-12:00,19/03/2024 à 16:00,43.6044622,1.4442469,1.3767879,43.6450248
735865,Beauvais (FR60),Bonneuil-sur-marne (FR94),18/03/2024 à 15:00,19/03/2024 à 12:00 Rdv 10:00-12:00,49.4300997,2.0823355,48.7737116,2.4869009
734098,Castelnau-d'estrétefonds (FR31),Bordeaux (FR33),19/03/2024 à 08:30,19/03/2024 à 14:00 Rdv 12:00-14:00,43.78251,1.3590892,44.841225,-0.5800364
735935,Ambarès-et-lagrave (FR33),Bouchemaine (FR49),18/03/2024 à 09:00,18/03/2024 à 16:00 Rdv 14:00-16:00,44.9259011,-0.4881846,47.4234644,-0.6085356
734656,Péronne (FR80),Boulogne-sur-mer (FR62),14/03/2024 à 09:00,14/03/2024 à 12:00,49.9289578,2.9321899,50.7259985,1.6118771
736044,Bessines-sur-gartempe (FR87),Bourges (FR18),15/03/2024 à 12:00,15/03/2024 à 16:15,46.1090993,1.3685926,47.0811658,2.399125
736480,Liège (BE40),Braine-le-château (BE14),14/03/2024 à 13:00,14/03/2024 à 17:00,0.0,0.0,50.6827864,4.2669864
735842,Saint-brieuc (FR22),Brech (FR56),20/03/2024 à 17:00,21/03/2024 à 17:00,48.5141134,-2.7603283,47.721585,-2.9969193
736605,Plougastel-daoulas (FR29),Brech (FR56),15/03/2024 à 17:00,15/03/2024 à 19:00,48.3742317,-4.369679,47.721585,-2.9969193
736598,Awans (BE43),Bruxelles (BE10),18/03/2024 à 11:00 Rdv 11:00-13:00,18/03/2024 à 15:00,50.6670346,5.4622239,50.8550018,4.3512333761166175
736622,Zaragoza (ES50),Castellar del vallès (ES08),13/03/2024 à 09:00,14/03/2024 à 16:00,41.6521342,-0.8809428,41.6138122,2.0875963
734318,Limoges (FR87),Castelnau-d'estrétefonds (FR31),18/03/2024 à 11:00 Rdv 11:00-13:00,18/03/2024 à 16:00,45.8354243,1.2644847,43.78251,1.3590892
734099,Bordeaux (FR33),Castelnau-d'estrétefonds (FR31),19/03/2024 à 12:00 Rdv 12:00-14:00,19/03/2024 à 16:30,44.841225,-0.5800364,43.78251,1.3590892
735719,Lavardac (FR47),Castelnau-d\'estrétefonds (FR31),18/03/2024 à 09:00 Rdv 9:00-11:00,18/03/2024 à 16:00,44.1787867,0.297633,43.78251,1.3590892
734875,Laguiole (FR12),Castelnau-d\'estrétefonds (FR31),22/03/2024 à 14:00 Rdv 14:00-15:00,25/03/2024 à 12:00,44.6839098,2.8468743,43.78251,1.3590892
735814,Villemur-sur-tarn (FR31),Castelnau-d\'estrétefonds (FR31),15/03/2024 à 12:30 Rdv 12:30-14:30,15/03/2024 à 16:00,43.8650448,1.5039825,43.78251,1.3590892
735653,Toulouse (FR31),Castelnau-d\'estrétefonds (FR31),18/03/2024 à 14:00 Rdv 14:00-16:00,18/03/2024 à 19:00,43.6044622,1.4442469,43.78251,1.3590892
736241,Balma (FR31),Castelnau-d\'estrétefonds (FR31),18/03/2024 à 15:00 Rdv 15:00-16:00,19/03/2024 à 12:00,43.6259022,1.4853573,43.78251,1.3590892
733845,Saint-ail (FR54),Cattenom (FR57),19/03/2024 à 08:15,19/03/2024 à 12:00 Rdv 10:00-12:00,49.1808501,5.9960901,49.4074405,6.244669
736415,Thann (FR68),Cesson (FR77),21/03/2024 à 08:30,21/03/2024 à 15:00,47.8101008,7.1020957,48.5624381,2.6021145
736317,Créteil (FR94),Champagne-au-mont-d\'or (FR69),15/03/2024 à 08:30,15/03/2024 à 16:00 Rdv 14:00-16:00,0.0,0.0,0.0,0.0
736620,Corbas (FR69),Champlan (FR91),19/03/2024 à 08:00,19/03/2024 à 15:00,45.6662663,4.9015205,48.7073405,2.2758626
732040,Hasselt (BE35),Charleroi (BE60),25/03/2024 à 08:30,25/03/2024 à 10:30,50.9303735,5.3378043,50.4116233,4.444528
735490,Dijon (FR21),Chevigny-saint-sauveur (FR21),21/03/2024 à 10:30,21/03/2024 à 15:00,47.3215806,5.0414701,47.2977106,5.1382218
729580,Saint-barthelemy-d'anjou (FR49),Cholet (FR49),14/03/2024 à 12:01,14/03/2024 à 16:00,47.4683081,-0.4932941,47.0617293,-0.8801359
723571,Aunay /s auneau (FR28),Châlons-en-champagne (FR51),18/03/2024 à 08:30,18/03/2024 à 16:00 Rdv 14:00-16:00,48.4670517,1.837231,48.9566218,4.3628851
735495,Neuvy (FR41),Clamecy (FR58),19/03/2024 à 11:00,19/03/2024 à 17:00 Rdv 15:00-17:00,48.7469304,3.5177618,49.4286111,3.3619444
736616,Épinal (FR88),Clermont-ferrand (FR63),18/03/2024 à 08:30 Rdv 8:30-10:30,18/03/2024 à 15:30 Rdv 14:30-15:30,48.1747684,6.4503643,45.7774551,3.0819427
736238,Marseille (FR13),Corbas (FR69),18/03/2024 à 14:00 Rdv 14:00-16:00,18/03/2024 à 16:00,43.2961743,5.3699525,45.6662663,4.9015205
735728,Marckolsheim (FR67),Dijon (FR21),19/03/2024 à 08:30,19/03/2024 à 16:00 Rdv 14:00-16:00,48.165441,7.5444161,47.3215806,5.0414701
735489,Chevigny-saint-sauveur (FR21),Dijon (FR21),21/03/2024 à 09:00,21/03/2024 à 10:30,47.2977106,5.1382218,47.3215806,5.0414701
736412,Montélimar (FR26),Donzère (FR26),14/03/2024 à 15:30,15/03/2024 à 15:30,44.5579391,4.750318,44.4442014,4.7073439
736340,Montélimar (FR26),Donzère (FR26),12/03/2024 à 11:15,14/03/2024 à 14:45,44.5579391,4.750318,44.4442014,4.7073439
736606,Woippy (FR57),Entzheim (FR67),19/03/2024 à 14:00 Rdv 14:00-16:00,20/03/2024 à 12:00,49.1515848,6.1519224,48.5346177,7.6358832
735454,Bassens (FR33),Essarts-en-bocage (FR85),25/03/2024 à 13:00,25/03/2024 à 16:30,44.9015003,-0.5163222,46.78605775,-1.2528102863462225
734079,Rouen (FR76),Fleury-mérogis (FR91),20/03/2024 à 11:00 Rdv 11:00-13:00,20/03/2024 à 16:00,49.4404591,1.0939658,48.629965,2.3609313
736576,Paris (FR75),Fleury-mérogis (FR91),15/03/2024 à 09:00 Rdv 9:00-11:00,15/03/2024 à 16:45,48.8534951,2.3483915,48.629965,2.3609313
734222,Laval (FR53),Fleury-mérogis (FR91),21/03/2024 à 12:00 Rdv 12:00-14:00,21/03/2024 à 16:00,48.0706687,-0.7734022,48.629965,2.3609313
734262,Laval (FR53),Fleury-mérogis (FR91),19/03/2024 à 11:00 Rdv 11:00-13:00,19/03/2024 à 16:00,48.0706687,-0.7734022,48.629965,2.3609313
734075,Lille (FR59),Fleury-mérogis (FR91),14/03/2024 à 14:00 Rdv 14:00-16:00,15/03/2024 à 12:00,50.6365654,3.0635282,48.629965,2.3609313
734141,Rouen (FR76),Fleury-mérogis (FR91),20/03/2024 à 11:00 Rdv 11:00-13:00,20/03/2024 à 16:00,49.4404591,1.0939658,48.629965,2.3609313
734238,Nantes (FR44),Fleury-mérogis (FR91),20/03/2024 à 10:00 Rdv 10:00-12:00,20/03/2024 à 16:00,47.2186371,-1.5541362,48.629965,2.3609313
733209,Le vésinet (FR78),Fleury-mérogis (FR91),15/03/2024 à 09:00 Rdv 9:00-11:00,15/03/2024 à 16:00,48.894254,2.1347291,48.629965,2.3609313
734198,Rouen (FR76),Fleury-mérogis (FR91),20/03/2024 à 11:00 Rdv 11:00-13:00,20/03/2024 à 16:00,49.4404591,1.0939658,48.629965,2.3609313
734243,Rouen (FR76),Fleury-mérogis (FR91),20/03/2024 à 11:00 Rdv 11:00-13:00,20/03/2024 à 16:00,49.4404591,1.0939658,48.629965,2.3609313
734200,Rouen (FR76),Fleury-mérogis (FR91),20/03/2024 à 11:00 Rdv 11:00-13:00,20/03/2024 à 16:00,49.4404591,1.0939658,48.629965,2.3609313
734215,Quimper (FR29),Fleury-mérogis (FR91),20/03/2024 à 14:00 Rdv 14:00-16:00,21/03/2024 à 12:00,47.9960325,-4.1024782,48.629965,2.3609313
734081,Rouen (FR76),Fleury-mérogis (FR91),20/03/2024 à 11:00 Rdv 11:00-13:00,20/03/2024 à 16:00,49.4404591,1.0939658,48.629965,2.3609313
734368,Quimper (FR29),Fleury-mérogis (FR91),20/03/2024 à 14:00 Rdv 14:00-16:00,21/03/2024 à 12:00,47.9960325,-4.1024782,48.629965,2.3609313
736549,Vaujours (FR93),Flins-sur-seine (FR78),15/03/2024 à 14:00 Rdv 14:00-16:00,18/03/2024 à 09:00,48.9302563,2.5691921,48.9623407,1.8684146
736613,Fontenay-lès-briis (FR91),Flins-sur-seine (FR78),15/03/2024 à 10:00 Rdv 10:00-12:00,18/03/2024 à 09:00,48.61939,2.15475,48.9623407,1.8684146
736602,Mantes-la-jolie (FR78),Flins-sur-seine (FR78),19/03/2024 à 10:00,19/03/2024 à 16:30,48.9891971,1.7140683,48.9623407,1.8684146
736592,Versailles (FR78),Flins-sur-seine (FR78),18/03/2024 à 10:00,18/03/2024 à 16:30,48.8035403,2.1266886,48.9623407,1.8684146
736612,Flins-sur-seine (FR78),Fontenay-lès-briis (FR91),15/03/2024 à 08:00,15/03/2024 à 12:00 Rdv 10:00-12:00,48.9623407,1.8684146,48.61939,2.15475
735477,Pierre de bresse (FR71),Forbach (FR57),14/03/2024 à 09:30 Rdv 9:30-11:00,14/03/2024 à 14:55,46.8829007,5.2608283,49.1862822,6.8958562
736426,Niort (FR79),Fouras (FR17),18/03/2024 à 09:00 Rdv 9:00-10:00,18/03/2024 à 12:30 Rdv 11:30-12:30,46.3239233,-0.4646064,45.9883689,-1.0935837
735598,Geel (BE24),Geel (BE24),15/03/2024 à 13:00 Rdv 13:00-14:00,15/03/2024 à 15:15,51.1610826,4.9903187,51.1610826,4.9903187
735597,Geel (BE24),Geel (BE24),15/03/2024 à 11:00,15/03/2024 à 14:00 Rdv 13:00-14:00,51.1610826,4.9903187,51.1610826,4.9903187
736588,Ludres (FR54),Geneuille (FR25),19/03/2024 à 09:00,19/03/2024 à 15:00 Rdv 14:00-15:00,48.6217058,6.1609279,47.3232842,5.971252
736055,Tournai (BE75),Gent (BE90),18/03/2024 à 09:00,18/03/2024 à 17:00,50.6056458,3.3878179,51.0538286,3.7250121
736292,Kortrijk (BE85),Gent (BE90),27/03/2024 à 08:30 Rdv 8:30-9:30,27/03/2024 à 11:45,50.8276429,3.2659884,51.0538286,3.7250121
736224,Bassens (FR33),Gradignan (FR33),21/03/2024 à 10:00,21/03/2024 à 14:00 Rdv 12:00-14:00,44.9015003,-0.5163222,44.7739701,-0.613907
734267,Ambérieu-en-bugey (FR01),Grenoble (FR38),26/03/2024 à 08:30,26/03/2024 à 12:00 Rdv 10:00-12:00,45.9584309,5.3595099,45.1875602,5.7357819
736187,Machelen (BE18),Heist-op-den-berg (BE22),18/03/2024 à 08:00,18/03/2024 à 13:00 Rdv 11:00-13:00,50.903150350789616,4.449248232844452,51.07913920390559,4.70224973042388
736326,Taverny (FR95),Heudreville-sur-eure (FR27),15/03/2024 à 09:00 Rdv 9:00-11:00,15/03/2024 à 13:00 Rdv 11:00-13:00,49.0265888,2.2234971,49.1403957,1.1874548
736430,Saint-ail (FR54),Illkirch-graffenstaden (FR67),21/03/2024 à 08:15,21/03/2024 à 16:00 Rdv 14:00-16:00,49.1808501,5.9960901,48.5298611,7.7116218
736297,Avrigny (FR60),Issy les moulineaux cedex 9 (FR92),08/04/2024 à 09:50,08/04/2024 à 12:00 Rdv 10:00-12:00,49.3817833,2.57932,0.0,0.0
735927,Roeselare (BE88),Izegem (BE88),14/03/2024 à 09:00,14/03/2024 à 17:00,50.9444948,3.124765,50.9137743,3.209106585214543
735767,Asse (BE17),Kruibeke (BE91),25/03/2024 à 10:00,25/03/2024 à 15:00,50.9094333,4.2015646,51.17625475,4.298036873275151
736258,Orvault (FR44),L\'herbergement (FR85),18/03/2024 à 10:00 Rdv 10:00-11:00,18/03/2024 à 14:00,-1.6194319725,47.2511912196,0.0,0.0
728942,Chartres-de-bretagne (FR35),La chapelle-sur-erdre (FR44),18/03/2024 à 08:00,18/03/2024 à 10:00 Rdv 9:00-10:00,48.0432406,-1.7082369,47.2996846,-1.5518632
736537,Tours (FR37),La riche (FR37),14/03/2024 à 10:30,14/03/2024 à 14:30,0.0,0.0,47.3881295,0.6572824
732558,Aix-en-provence (FR13),La roche-de-glun (FR26),18/03/2024 à 12:00 Rdv 12:00-14:00,18/03/2024 à 16:00,43.5298424,5.4474738,45.0133527,4.8443331
736314,Saint-maximin-la-sainte-baume (FR83),La roche-de-glun (FR26),20/03/2024 à 14:00 Rdv 14:00-16:00,21/03/2024 à 12:00,43.4522053,5.862294,45.0133527,4.8443331
731524,Villeneuve-loubet (FR06),La roche-de-glun (FR26),13/03/2024 à 15:00 Rdv 15:00-17:00,14/03/2024 à 10:00,43.6579947,7.1217592,45.0133527,4.8443331
735664,Niort (FR79),La roche-sur-yon (FR85),18/03/2024 à 08:30 Rdv 8:30-9:30,18/03/2024 à 12:00 Rdv 11:00-12:00,46.3239233,-0.4646064,46.6705431,-1.4269698
734874,Toulouse (FR31),Laguiole (FR12),22/03/2024 à 09:00,22/03/2024 à 15:00 Rdv 14:00-15:00,43.6044622,1.4442469,44.6839098,2.8468743
735237,Aubagne (FR13),Lançon-provence (FR13),15/03/2024 à 09:00,15/03/2024 à 10:30,43.2924385,5.5703031,43.5913062,5.1258628
734221,Valenton (FR94),Laval (FR53),21/03/2024 à 08:30,21/03/2024 à 14:00 Rdv 12:00-14:00,48.7443189,2.4699741,48.0706687,-0.7734022
734260,Wavrin (FR59),Laval (FR53),18/03/2024 à 10:00 Rdv 10:00-15:00,19/03/2024 à 13:00 Rdv 11:00-13:00,50.570559,2.932545,48.0706687,-0.7734022
728943,La chapelle-sur-erdre (FR44),Le cellier (FR44),18/03/2024 à 09:00 Rdv 9:00-10:00,18/03/2024 à 16:00,47.2996846,-1.5518632,47.3186735,-1.3465357
736220,Le rheu (FR35),Le cellier (FR44),18/03/2024 à 10:00 Rdv 10:00-12:00,18/03/2024 à 16:00,48.101097,-1.795384,47.3186735,-1.3465357
736448,Tours (FR37),Le cellier (FR44),20/03/2024 à 12:00 Rdv 12:00-14:00,20/03/2024 à 16:30,0.0,0.0,47.3186735,-1.3465357
736587,Pont-audemer (FR27),Le havre (FR76),22/03/2024 à 10:00,22/03/2024 à 12:00,49.34758065,0.5333167486137402,49.4938975,0.1079732
736282,Chartres-de-bretagne (FR35),Le rheu (FR35),15/03/2024 à 08:30,15/03/2024 à 12:00 Rdv 10:00-12:00,48.0432406,-1.7082369,48.101097,-1.795384
736219,Chartres-de-bretagne (FR35),Le rheu (FR35),18/03/2024 à 08:30,18/03/2024 à 12:00 Rdv 10:00-12:00,48.0432406,-1.7082369,48.101097,-1.795384
736278,Loeches (ES28),Lerín (ES31),18/03/2024 à 09:00,18/03/2024 à 15:00 Rdv 13:00-15:00,40.3837901,-3.4092281,42.4827069,-1.9727192
730524,La chapelle-des-fougeretz (FR35),Les andelys (FR27),18/03/2024 à 09:00,18/03/2024 à 13:30,48.178066,-1.7341163,49.2469193,1.4215534
736446,Locquignol (FR59),Lieu-saint-amand (FR59),25/03/2024 à 12:00 Rdv 12:00-14:00,25/03/2024 à 16:00,0.0,0.0,50.2729141,3.3461187
734074,Wavrin (FR59),Lille (FR59),14/03/2024 à 08:30,14/03/2024 à 16:00 Rdv 14:00-16:00,50.570559,2.932545,50.6365654,3.0635282
736283,Carrières-sous-poissy (FR78),Lille (FR59),19/03/2024 à 08:30,19/03/2024 à 14:00 Rdv 12:00-14:00,48.9437694,2.0341747,50.6365654,3.0635282
734317,Castelnau-d'estrétefonds (FR31),Limoges (FR87),18/03/2024 à 08:30,18/03/2024 à 13:00 Rdv 11:00-13:00,43.78251,1.3590892,45.8354243,1.2644847
736445,Wavrin (FR59),Locquignol (FR59),25/03/2024 à 08:30,25/03/2024 à 14:00 Rdv 12:00-14:00,50.570559,2.932545,0.0,0.0
736279,Montoir-de-bretagne (FR44),Lorient (FR56),21/03/2024 à 08:00,21/03/2024 à 11:30,47.3285909,-2.1543171,47.7477336,-3.3660907
736274,Arc-et-senans (FR25),Lormont (FR33),20/03/2024 à 12:00,21/03/2024 à 12:00,5.77872991562,47.0317001343,-0.5182007,44.876407
736443,Ayamonte (ES21),"Luisiana, la (ES41)",15/03/2024 à 10:00 Rdv 10:00-12:00,15/03/2024 à 17:30,37.215797,-7.4060169,303891.0,-9383689.0
736295,Orvault (FR44),Luçon (FR85),21/03/2024 à 09:30 Rdv 9:30-10:30,21/03/2024 à 14:00,-1.6194319725,47.2511912196,15.5919971,120.73967457219264
735413,Neuvy (FR41),Lyon (FR69),18/03/2024 à 08:30,18/03/2024 à 16:00 Rdv 14:00-16:00,48.7469304,3.5177618,45.7578137,4.8320114
736470,Tienen (BE33),Machelen (BE18),27/03/2024 à 14:00,27/03/2024 à 16:00 Rdv 15:00-16:00,50.6509998,2.4660832,50.903150350789616,4.449248232844452
736339,Boortmeerbeek (BE31),Machelen (BE18),18/03/2024 à 08:00,18/03/2024 à 15:00 Rdv 8:45-15:00,50.978285850000006,4.575800524999997,50.903150350789616,4.449248232844452
736188,Heist-op-den-berg (BE22),Machelen (BE18),18/03/2024 à 11:00 Rdv 11:00-13:00,18/03/2024 à 15:30,51.07913920390559,4.70224973042388,50.903150350789616,4.449248232844452
736335,Heist-op-den-berg (BE22),Machelen (BE18),18/03/2024 à 09:00,18/03/2024 à 15:00 Rdv 10:00-15:00,51.07913920390559,4.70224973042388,50.903150350789616,4.449248232844452
736246,Sint-pieters-leeuw (BE16),Machelen (BE18),21/03/2024 à 09:00,21/03/2024 à 15:00 Rdv 9:45-15:00,0.0,0.0,50.903150350789616,4.449248232844452
736236,Esneux (BE41),Machelen (BE18),20/03/2024 à 08:00,20/03/2024 à 15:00 Rdv 9:45-15:00,0.0,0.0,50.903150350789616,4.449248232844452
736563,Alcobendas (ES28),Madrid (ES28),14/03/2024 à 11:30 Rdv 11:30-12:30,14/03/2024 à 13:15,40.5400082,-3.6358494,40.4167047,-3.7035825
736466,Meyreuil (FR13),Manosque (FR04),13/03/2024 à 09:00,13/03/2024 à 17:00,43.4867359,5.4952155,43.8338026,5.7826657
736601,Flins-sur-seine (FR78),Mantes-la-jolie (FR78),19/03/2024 à 08:00,19/03/2024 à 10:00,48.9623407,1.8684146,48.9891971,1.7140683
735595,La farlede (FR83),Marseille (FR13),28/03/2024 à 08:30,28/03/2024 à 10:00,43.1597,6.04317,43.2961743,5.3699525
735192,Saint-ail (FR54),Maxéville (FR54),22/03/2024 à 08:15,22/03/2024 à 12:00,49.1808501,5.9960901,48.7119046,6.1641314
736216,Machelen (BE18),Mechelen (BE28),19/03/2024 à 08:00,19/03/2024 à 15:00 Rdv 8:45-15:00,50.903150350789616,4.449248232844452,51.0281381,4.4803453
736578,Zulte (BE98),Mechelen (BE28),18/03/2024 à 08:00,18/03/2024 à 16:00,50.9400485,3.475305501634618,51.0281381,4.4803453
736582,Zulte (BE98),Mechelen (BE28),18/03/2024 à 08:00,18/03/2024 à 16:00,50.9400485,3.475305501634618,51.0281381,4.4803453
734064,Miramas (FR13),Mende (FR48),11/04/2024 à 08:30,11/04/2024 à 12:00 Rdv 10:00-12:00,43.582733,5.0025809,44.5180226,3.4991057
736503,Aalter (BE98),Merelbeke (BE98),15/03/2024 à 08:30,15/03/2024 à 14:00,51.083894,3.4485192,50.9942924,3.7459119
724811,Châlons-en-champagne (FR51),Mexy (FR54),18/03/2024 à 14:00 Rdv 14:00-16:00,19/03/2024 à 12:00,48.9566218,4.3628851,49.4997166,5.7804763
731389,Paris (FR75),Mitry-mory (FR77),21/03/2024 à 14:00 Rdv 14:00-16:00,22/03/2024 à 12:00,48.8534951,2.3483915,48.9839674,2.6183971
736595,Neuilly-sur-seine (FR92),Montauban-de-bretagne (FR35),19/03/2024 à 09:00 Rdv 9:00-11:00,19/03/2024 à 16:00,48.884683,2.2695658,48.1998838,-2.0462319
735855,Loudeac (FR22),Montauban-de-bretagne (FR35),15/03/2024 à 14:00 Rdv 14:00-16:00,15/03/2024 à 17:00,48.1762534,-2.7535644,48.1998838,-2.0462319
729565,Nantes (FR44),Montauban-de-bretagne (FR35),15/03/2024 à 13:00 Rdv 13:00-15:00,15/03/2024 à 16:00,47.2186371,-1.5541362,48.1998838,-2.0462319
735450,Ambérieu-en-bugey (FR01),Montbonnot saint martin (FR38),01/04/2024 à 09:20,01/04/2024 à 15:00 Rdv 13:00-15:00,45.9584309,5.3595099,45.2264498,5.80266
736287,Quincieux (FR69),Montceau-les-mines (FR71),18/03/2024 à 09:35,18/03/2024 à 12:00 Rdv 10:00-12:00,45.90900965105747,4.762067991264464,46.6740455,4.3631681
735651,Rezé (FR44),Montoir-de-bretagne (FR44),21/03/2024 à 11:30,21/03/2024 à 15:30,47.1905456,-1.5695287,47.3285909,-2.1543171
735631,Saint-laurent-sur-sèvre (FR85),Montoir-de-bretagne (FR44),25/03/2024 à 11:30,25/03/2024 à 15:00,46.9597454,-0.8888005,47.3285909,-2.1543171
736280,Lorient (FR56),Montoir-de-bretagne (FR44),21/03/2024 à 11:30,21/03/2024 à 15:30,47.7477336,-3.3660907,47.3285909,-2.1543171
736121,Miramas (FR13),Montpellier (FR34),18/03/2024 à 08:30,18/03/2024 à 13:30 Rdv 11:30-13:30,43.582733,5.0025809,43.6112422,3.8767337
736411,Donzère (FR26),Montélimar (FR26),12/03/2024 à 12:00,14/03/2024 à 15:30,44.4442014,4.7073439,44.5579391,4.750318
736390,Wijnegem (BE21),Mortsel (BE26),15/03/2024 à 10:00 Rdv 10:00-11:00,15/03/2024 à 13:15 Rdv 12:15-13:15,51.2270761,4.5225318,51.1704119,4.4566996
736005,Valbonne (FR06),Mougins (FR06),19/03/2024 à 14:45 Rdv 14:45-16:00,19/03/2024 à 18:30,43.641141,7.0086255,43.6008898,6.9963543
735527,Saint-ail (FR54),Mulhouse (FR68),18/03/2024 à 08:15,18/03/2024 à 14:30,49.1808501,5.9960901,47.7467233,7.3389937
735932,Le bouscat (FR33),Mérignac (FR33),26/03/2024 à 09:00,26/03/2024 à 12:00 Rdv 10:00-12:00,44.8661755,-0.5992399,44.842168,-0.6469022
735808,Bassens (FR33),Mérignac (FR33),19/03/2024 à 08:30,19/03/2024 à 12:00 Rdv 10:00-12:00,44.9015003,-0.5163222,44.842168,-0.6469022
736293,Marckolsheim (FR67),Nancy (FR54),18/03/2024 à 12:00,18/03/2024 à 16:00 Rdv 14:00-16:00,48.165441,7.5444161,48.6937223,6.1834097
736228,Annecy (FR74),Nantes (FR44),20/03/2024 à 09:00,21/03/2024 à 11:00 Rdv 9:00-11:00,45.8992348,6.1288847,47.2186371,-1.5541362
735566,Montoir-de-bretagne (FR44),Nantes (FR44),18/03/2024 à 08:30,18/03/2024 à 12:00 Rdv 10:00-12:00,47.3285909,-2.1543171,47.2186371,-1.5541362
734237,Villevêque (FR49),Nantes (FR44),20/03/2024 à 08:30,20/03/2024 à 12:00 Rdv 10:00-12:00,47.5601026,-0.4230772,47.2186371,-1.5541362
735791,Le castellet (FR83),Nice (FR06),20/03/2024 à 13:00 Rdv 13:00-15:00,20/03/2024 à 18:30,0.0,0.0,43.7009358,7.2683912
735665,La roche-sur-yon (FR85),Niort (FR79),18/03/2024 à 11:00 Rdv 11:00-12:00,18/03/2024 à 16:00 Rdv 15:00-16:00,46.6705431,-1.4269698,46.3239233,-0.4646064
736066,Sautron (FR44),Niort (FR79),21/03/2024 à 11:00 Rdv 11:00-12:00,21/03/2024 à 16:00 Rdv 15:00-16:00,47.2632611,-1.6683537,46.3239233,-0.4646064
736053,Saint-méen-le-grand (FR35),Niort (FR79),19/03/2024 à 14:00 Rdv 14:00-15:00,20/03/2024 à 10:15 Rdv 9:15-10:15,48.1894709,-2.1911338,46.3239233,-0.4646064
736002,Sainte-anne-sur-brivet (FR44),Niort (FR79),20/03/2024 à 11:00 Rdv 11:00-12:00,20/03/2024 à 16:00 Rdv 15:00-16:00,47.4596949,-2.005667,46.3239233,-0.4646064
736427,Fouras (FR17),Niort (FR79),18/03/2024 à 11:30 Rdv 11:30-12:30,18/03/2024 à 16:15 Rdv 15:15-16:15,45.9883689,-1.0935837,46.3239233,-0.4646064
736590,Arles (FR13),Opio (FR06),15/03/2024 à 10:30,15/03/2024 à 17:30,43.6776223,4.6309653,43.6684761,6.9820279
736260,L\'herbergement (FR85),Orvault (FR44),18/03/2024 à 14:00,18/03/2024 à 17:45,0.0,0.0,-1.6194319725,47.2511912196
736559,Machelen (BE18),Overijse (BE30),18/03/2024 à 08:00,18/03/2024 à 16:00 Rdv 8:45-16:00,50.903150350789616,4.449248232844452,50.7701622,4.5351806
736385,Santiago de compostela (ES15),Oviedo (ES33),14/03/2024 à 09:00,14/03/2024 à 16:30,42.8804219,-8.5458608,43.3618625,-5.8483581
731388,Corbas (FR69),Paris (FR75),21/03/2024 à 08:30,21/03/2024 à 16:00 Rdv 14:00-16:00,45.6662663,4.9015205,48.8534951,2.3483915
736630,Dechy (FR59),Parisot (FR81),14/03/2024 à 09:00,15/03/2024 à 11:00,50.354883,3.1299151,43.7987,1.83178
736604,Chartres-de-bretagne (FR35),Plougastel-daoulas (FR29),15/03/2024 à 08:30,15/03/2024 à 17:00,48.0432406,-1.7082369,48.3742317,-4.369679
736048,Nice (FR06),Puyloubier (FR13),25/03/2024 à 08:00 Rdv 8:00-9:00,25/03/2024 à 14:00 Rdv 12:00-14:00,43.7009358,7.2683912,43.5259569,5.6746188
734657,Boulogne-sur-mer (FR62),Péronne (FR80),14/03/2024 à 15:00,14/03/2024 à 17:00 Rdv 15:00-17:00,50.7259985,1.6118771,49.9289578,2.9321899
734367,Villevêque (FR49),Quimper (FR29),20/03/2024 à 08:30,20/03/2024 à 16:00 Rdv 14:00-16:00,47.5601026,-0.4230772,47.9960325,-4.1024782
734214,Valenton (FR94),Quimper (FR29),19/03/2024 à 10:00 Rdv 10:00-15:00,20/03/2024 à 16:00 Rdv 14:00-16:00,48.7443189,2.4699741,47.9960325,-4.1024782
736248,Archamps (FR74),Quincieux (FR69),18/03/2024 à 09:00 Rdv 9:00-11:00,18/03/2024 à 17:00,46.1354538,6.1332458,45.90900965105747,4.762067991264464
736492,Ecuisses (FR71),Quincieux (FR69),18/03/2024 à 10:00 Rdv 10:00-12:00,18/03/2024 à 16:00,46.7565885,4.5382451,45.90900965105747,4.762067991264464
735650,Montoir-de-bretagne (FR44),Rezé (FR44),21/03/2024 à 08:00,21/03/2024 à 11:30,47.3285909,-2.1543171,47.1905456,-1.5695287
736334,Ambarès-et-lagrave (FR33),Rochecorbon (FR37),18/03/2024 à 09:00,18/03/2024 à 16:00 Rdv 14:00-16:00,44.9259011,-0.4881846,47.4141177,0.7549178
735793,Wilrijk (BE26),Roeselare (BE88),18/03/2024 à 12:30,18/03/2024 à 16:30 Rdv 14:30-16:30,51.1700864,4.3942577,50.9444948,3.124765
734078,Avrigny (FR60),Rouen (FR76),20/03/2024 à 08:30,20/03/2024 à 13:00 Rdv 11:00-13:00,49.3817833,2.57932,49.4404591,1.0939658
734199,Avrigny (FR60),Rouen (FR76),20/03/2024 à 08:30,20/03/2024 à 13:00 Rdv 11:00-13:00,49.3817833,2.57932,49.4404591,1.0939658
734140,Valenton (FR94),Rouen (FR76),20/03/2024 à 08:30,20/03/2024 à 13:00 Rdv 11:00-13:00,48.7443189,2.4699741,49.4404591,1.0939658
734197,Avrigny (FR60),Rouen (FR76),20/03/2024 à 08:30,20/03/2024 à 13:00 Rdv 11:00-13:00,49.3817833,2.57932,49.4404591,1.0939658
734080,Avrigny (FR60),Rouen (FR76),20/03/2024 à 08:30,20/03/2024 à 13:00 Rdv 11:00-13:00,49.3817833,2.57932,49.4404591,1.0939658
736235,Nantes (FR44),Saint-aignan-de-grand-lieu (FR44),21/03/2024 à 09:00 Rdv 9:00-11:00,21/03/2024 à 14:00,47.2186371,-1.5541362,47.1224436,-1.6345992
730526,Les andelys (FR27),Saint-aignan-de-grand-lieu (FR44),18/03/2024 à 14:00,18/03/2024 à 16:00,49.2469193,1.4215534,47.1224436,-1.6345992
736262,Saint-aignan-grandlieu (FR44),Saint-aignan-grandlieu (FR44),18/03/2024 à 11:00 Rdv 11:00-13:00,18/03/2024 à 16:00,47.124601,-1.630937,47.124601,-1.630937
736325,Saint-herblain (FR44),Saint-aignan-grandlieu (FR44),19/03/2024 à 10:30 Rdv 10:30-12:30,19/03/2024 à 16:00,47.2238156,-1.6529932,47.124601,-1.630937
736261,Montoir-de-bretagne (FR44),Saint-aignan-grandlieu (FR44),18/03/2024 à 08:30,18/03/2024 à 13:00 Rdv 11:00-13:00,47.3285909,-2.1543171,47.124601,-1.630937
735528,Mulhouse (FR68),Saint-ail (FR54),18/03/2024 à 14:30,19/03/2024 à 12:00,47.7467233,7.3389937,49.1808501,5.9960901
736431,Illkirch-graffenstaden (FR67),Saint-ail (FR54),21/03/2024 à 14:00 Rdv 14:00-16:00,22/03/2024 à 09:30,48.5298611,7.7116218,49.1808501,5.9960901
736149,Mulhouse (FR68),Saint-ail (FR54),25/03/2024 à 12:00,25/03/2024 à 16:30,47.7467233,7.3389937,49.1808501,5.9960901
735988,Bassens (FR33),Saint-aubin-de-blaye (FR33),21/03/2024 à 14:00,21/03/2024 à 16:00,44.9015003,-0.5163222,45.2662866,-0.5641823
729579,Cholet (FR49),Saint-barthelemy-d'anjou (FR49),14/03/2024 à 10:00,14/03/2024 à 12:00,47.0617293,-0.8801359,47.4683081,-0.4932941
735360,Castelnau-d\'estrétefonds (FR31),Saint-cernin-de-larche (FR19),02/04/2024 à 09:00,02/04/2024 à 12:00 Rdv 10:00-12:00,43.78251,1.3590892,45.1030652,1.4144957
736324,Montoir-de-bretagne (FR44),Saint-herblain (FR44),19/03/2024 à 08:30,19/03/2024 à 12:30 Rdv 10:30-12:30,47.3285909,-2.1543171,47.2238156,-1.6529932
735630,Montoir-de-bretagne (FR44),Saint-laurent-sur-sèvre (FR85),25/03/2024 à 08:00,25/03/2024 à 11:30,47.3285909,-2.1543171,46.9597454,-0.8888005
734607,Laval (FR53),Saint-loup-du-dorat (FR53),13/03/2024 à 09:00 Rdv 9:00-11:00,13/03/2024 à 13:00 Rdv 12:00-13:00,48.0706687,-0.7734022,47.8903609,-0.4164242
736272,Villejuif (FR94),Saint-maximin (FR60),19/03/2024 à 15:00,19/03/2024 à 17:00 Rdv 15:00-17:00,0.0,0.0,43.9932479,4.4498929
736052,Niort (FR79),Saint-méen-le-grand (FR35),19/03/2024 à 08:30 Rdv 8:30-9:30,19/03/2024 à 15:00 Rdv 14:00-15:00,46.3239233,-0.4646064,48.1894709,-2.1911338
735646,Mougins (FR06),Saint-raphaël (FR83),26/03/2024 à 10:45 Rdv 10:45-11:45,26/03/2024 à 15:00 Rdv 13:00-15:00,43.6008898,6.9963543,45.3043079,1.0747165
736001,Niort (FR79),Sainte-anne-sur-brivet (FR44),20/03/2024 à 08:30 Rdv 8:30-9:30,20/03/2024 à 12:00 Rdv 11:00-12:00,46.3239233,-0.4646064,47.4596949,-2.005667
736341,Miramas (FR13),Salon de provence (FR13),08/04/2024 à 08:00,08/04/2024 à 11:00 Rdv 9:00-11:00,43.582733,5.0025809,43.6405237,5.0980225
736065,Niort (FR79),Sautron (FR44),21/03/2024 à 08:30 Rdv 8:30-9:30,21/03/2024 à 12:00 Rdv 11:00-12:00,46.3239233,-0.4646064,47.2632611,-1.6683537
736433,Bondues (FR59),Sequedin (FR59),14/03/2024 à 09:00,14/03/2024 à 11:00 Rdv 9:00-11:00,50.7034622,3.0921638,50.6253159,2.9821639
732473,Watermael-boitsfort (BE11),Sint-niklaas (BE91),08/03/2024 à 09:30,13/03/2024 à 15:30,50.7981063,4.4176441,51.1646685,4.1395124
736037,Saint-georges-d'esperanche (FR38),St priest (FR69),15/03/2024 à 09:00,15/03/2024 à 16:00,45.5574829,5.0808076,45.699911230631024,4.940050948355273
735412,Tarnos (FR40),Tarnos (FR40),19/03/2024 à 14:00 Rdv 14:00-16:00,19/03/2024 à 16:30,43.5405622,-1.4611915,43.5405622,-1.4611915
735411,Tarnos (FR40),Tarnos (FR40),19/03/2024 à 08:00,19/03/2024 à 16:00 Rdv 14:00-16:00,43.5405622,-1.4611915,43.5405622,-1.4611915
736327,Heudreville-sur-eure (FR27),Taverny (FR95),15/03/2024 à 11:00 Rdv 11:00-13:00,15/03/2024 à 17:00 Rdv 13:15-17:00,49.1403957,1.1874548,49.0265888,2.2234971
731169,Entzheim (FR67),Thiaucourt-regniéville (FR54),21/03/2024 à 09:36,21/03/2024 à 14:00 Rdv 12:00-14:00,48.5346177,7.6358832,48.9544506,5.8675157
736336,Saint-fons (FR69),Thèze (FR04),14/03/2024 à 11:15,14/03/2024 à 16:45 Rdv 14:45-16:45,0.0,0.0,0.0,0.0
736117,Miramas (FR13),Toulon (FR83),18/03/2024 à 08:30,18/03/2024 à 13:30 Rdv 11:30-13:30,43.582733,5.0025809,43.13384507846755,5.930004113739942
735652,Bassens (FR33),Toulouse (FR31),18/03/2024 à 10:00,18/03/2024 à 16:00 Rdv 14:00-16:00,44.9015003,-0.5163222,43.6044622,1.4442469
733137,Corbas (FR69),Toulouse (FR31),18/03/2024 à 10:00 Rdv 10:00-15:00,19/03/2024 à 12:00 Rdv 10:00-12:00,45.6662663,4.9015205,43.6044622,1.4442469
736536,Le cellier (FR44),Tours (FR37),14/03/2024 à 08:00,14/03/2024 à 10:30,47.3186735,-1.3465357,0.0,0.0
735445,Bondues (FR59),Val-de-reuil (FR27),13/03/2024 à 09:00,13/03/2024 à 17:00,50.7034622,3.0921638,49.2716839,1.2128992
736004,Mougins (FR06),Valbonne (FR06),19/03/2024 à 14:00,19/03/2024 à 16:00 Rdv 14:45-16:00,43.6008898,6.9963543,43.641141,7.0086255
734992,Le mans (FR72),Varaville (FR14),18/03/2024 à 10:00,18/03/2024 à 15:00 Rdv 13:00-15:00,48.0073849,0.1967849,49.253386,-0.1582652
736548,Flins-sur-seine (FR78),Vaujours (FR93),15/03/2024 à 08:00,15/03/2024 à 16:00 Rdv 14:00-16:00,48.9623407,1.8684146,48.9302563,2.5691921
736284,Lille (FR59),Vendin-lès-béthune (FR62),19/03/2024 à 12:00 Rdv 12:00-14:00,19/03/2024 à 16:00,50.6365654,3.0635282,50.548777,2.6008182
736591,Flins-sur-seine (FR78),Versailles (FR78),18/03/2024 à 08:00,18/03/2024 à 10:00,48.9623407,1.8684146,48.8035403,2.1266886
736608,Fontenay-le-vicomte (FR91),Vesoul (FR70),15/03/2024 à 09:00,15/03/2024 à 15:15 Rdv 13:15-15:15,48.5478012,2.399759,47.6197395,6.1544694
736271,Saint-maximin (FR60),Villejuif (FR94),19/03/2024 à 09:00,19/03/2024 à 11:30,43.9932479,4.4498929,0.0,0.0
735813,Bassens (FR33),Villemur-sur-tarn (FR31),15/03/2024 à 08:30,15/03/2024 à 14:30 Rdv 12:30-14:30,44.9015003,-0.5163222,43.8650448,1.5039825
735429,Beauvais (FR60),Villeneuve-d\'ascq (FR59),13/03/2024 à 11:30,13/03/2024 à 14:30,49.4300997,2.0823355,50.6193174,3.1314002
731523,Corbas (FR69),Villeneuve-loubet (FR06),13/03/2024 à 08:30 Rdv 8:30-10:30,13/03/2024 à 17:00 Rdv 15:00-17:00,45.6662663,4.9015205,43.6579947,7.1217592
736300,Brest (FR29),Villevêque (FR49),19/03/2024 à 09:00 Rdv 9:00-11:00,19/03/2024 à 16:00,48.385361,-4.476705,47.5601026,-0.4230772
735706,Romorantin-lanthenay (FR41),Villevêque (FR49),18/03/2024 à 09:00 Rdv 9:00-11:00,18/03/2024 à 16:00,47.3592182,1.7434925,47.5601026,-0.4230772
736434,Etterbeek (BE10),Vilvoorde (BE18),15/03/2024 à 08:30 Rdv 8:30-10:30,15/03/2024 à 11:30 Rdv 10:30-11:30,50.8361447,4.3861737,50.928711,4.423126
732598,La riche (FR37),Vivonne (FR86),19/03/2024 à 09:00,19/03/2024 à 11:00,47.3881295,0.6572824,46.4262128,0.2584318
736162,La motte-servolex (FR73),Vénissieux (FR69),27/03/2024 à 09:00,27/03/2024 à 11:30,45.5984113,5.8767935,45.6977109,4.8855966
735730,Tongeren (BE37),Waregem (BE87),25/03/2024 à 10:30,25/03/2024 à 16:00,50.7806267,5.4639172,50.8868222,3.4323622
735688,Lestrem (FR62),Wavrin (FR59),22/03/2024 à 09:00 Rdv 9:00-11:00,22/03/2024 à 16:00,50.6216212,2.6857534,50.570559,2.932545
736389,Mortsel (BE26),Wijnegem (BE21),15/03/2024 à 09:00 Rdv 9:00-10:00,15/03/2024 à 11:00 Rdv 10:00-11:00,51.1704119,4.4566996,51.2270761,4.5225318
735794,Roeselare (BE88),Wilrijk (BE26),18/03/2024 à 14:30 Rdv 14:30-16:30,18/03/2024 à 16:45,50.9444948,3.124765,51.1700864,4.3942577
736464,Nanterre (FR92),Woippy (FR57),19/03/2024 à 09:00,19/03/2024 à 16:00 Rdv 14:00-16:00,48.8924273,2.2071267,49.1515848,6.1519224
736418,Zwijndrecht (BE20),Zwijndrecht (BE20),15/03/2024 à 08:00 Rdv 8:00-9:00,15/03/2024 à 11:45 Rdv 9:45-11:45,51.8162227,4.6405166,51.8162227,4.6405166
736432,Zwijndrecht (BE20),Zwijndrecht (BE20),15/03/2024 à 10:00 Rdv 10:00-11:00,15/03/2024 à 11:45,51.8162227,4.6405166,51.8162227,4.6405166
736405,Zwijndrecht (BE20),Zwijndrecht (BE20),15/03/2024 à 10:00 Rdv 10:00-11:00,15/03/2024 à 13:15 Rdv 12:15-13:15,51.8162227,4.6405166,51.8162227,4.6405166
736423,Zwijndrecht (BE20),Zwijndrecht (BE20),15/03/2024 à 08:30 Rdv 8:30-9:30,15/03/2024 à 11:15,51.8162227,4.6405166,51.8162227,4.6405166
736404,Zwijndrecht (BE20),Zwijndrecht (BE20),15/03/2024 à 08:00 Rdv 8:00-9:00,15/03/2024 à 11:00 Rdv 10:00-11:00,51.8162227,4.6405166,51.8162227,4.6405166
736414,Zwijndrecht (BE20),Zwijndrecht (BE20),15/03/2024 à 08:00 Rdv 8:00-9:00,15/03/2024 à 10:45,51.8162227,4.6405166,51.8162227,4.6405166
