IDtrajet,Ville de Départ,Ville d'arrivée,A partir du,Jusqu'au,Départ_Latitude,Départ_Longitude,Arrivé_Latitude,Arrivé_Longitude
732557,Corbas (FR69),Aix-en-provence (FR13),18/03/2024 à 08:30,18/03/2024 à 14:00 Rdv 12:00-14:00,45.6662663,4.9015205,43.5298424,5.4474738
736320,Murcia (ES30),Alicante-alacant (ES03),15/03/2024 à 12:00 Rdv 12:00-13:00,15/03/2024 à 14:30,37.9923795,-1.1305431,38.3436365,-0.4881708
735933,Mérignac (FR33),Ambarès-et-lagrave (FR33),26/03/2024 à 10:00 Rdv 10:00-12:00,26/03/2024 à 12:00,44.842168,-0.6469022,44.9259011,-0.4881846
735809,Mérignac (FR33),Ambarès-et-lagrave (FR33),19/03/2024 à 10:00 Rdv 10:00-12:00,19/03/2024 à 16:00,44.842168,-0.6469022,44.9259011,-0.4881846
734122,Clermont-ferrand (FR63),Ambérieu-en-bugey (FR01),12/03/2024 à 14:00 Rdv 14:00-16:00,13/03/2024 à 12:00,45.7774551,3.0819427,45.9584309,5.3595099
736110,Avignon (FR84),Ambérieu-en-bugey (FR01),19/03/2024 à 13:00 Rdv 13:00-15:00,19/03/2024 à 16:00,4.87174987793,43.9343986511,45.9584309,5.3595099
734268,Grenoble (FR38),Ambérieu-en-bugey (FR01),26/03/2024 à 10:00 Rdv 10:00-12:00,26/03/2024 à 16:00,45.1875602,5.7357819,45.9584309,5.3595099
736146,Montceau-les-mines (FR71),Ambérieu-en-bugey (FR01),20/03/2024 à 09:00 Rdv 9:00-11:00,20/03/2024 à 16:00,46.6740455,4.3631681,45.9584309,5.3595099
734252,Besançon (FR25),Ambérieu-en-bugey (FR01),18/03/2024 à 10:00 Rdv 10:00-12:00,18/03/2024 à 16:00,47.24267101995112,6.009830063015576,45.9584309,5.3595099
736118,Toulon (FR83),Ambérieu-en-bugey (FR01),18/03/2024 à 11:30 Rdv 11:30-13:30,18/03/2024 à 16:00,43.13384507846755,5.930004113739942,45.9584309,5.3595099
735453,Montbonnot saint martin (FR38),Ambérieu-en-bugey (FR01),01/04/2024 à 13:00 Rdv 13:00-15:00,01/04/2024 à 17:00,45.2264498,5.80266,45.9584309,5.3595099
733180,Namur (BE51),Antwerpen (BE20),07/03/2024 à 09:00,13/03/2024 à 15:00,50.4665284,4.8661892,51.2211097,4.3997081
734701,Leuven (BE30),Antwerpen (BE20),11/03/2024 à 09:00,14/03/2024 à 15:00,50.879202,4.7011675,51.2211097,4.3997081
729018,Herve (BE46),Antwerpen (BE20),11/03/2024 à 09:00,18/03/2024 à 15:00,50.63916,5.7931012,51.2211097,4.3997081
736273,Lormont (FR33),Arc-et-senans (FR25),19/03/2024 à 09:00,20/03/2024 à 12:00,-0.5182007,44.876407,5.77872991562,47.0317001343
736244,Cran-gevrier (FR74),Archamps (FR74),18/03/2024 à 09:00,18/03/2024 à 11:00 Rdv 9:00-11:00,45.9079102,6.106538,46.1354538,6.1332458
736457,Lapalud (FR84),Arles (FR13),26/03/2024 à 07:00,28/03/2024 à 16:00,44.3061604,4.6865913,43.6776223,4.6309653
735924,Nevers (FR58),Arrelles (FR10),14/03/2024 à 09:30,14/03/2024 à 16:00 Rdv 14:00-16:00,46.9876601,3.1577203,48.0486365,4.2754243
734479,Saint-quentin (FR02),Attin (FR62),19/03/2024 à 09:00,19/03/2024 à 12:00,49.8465253,3.2876843,50.4878746,1.7437837
736109,Miramas (FR13),Avignon (FR84),19/03/2024 à 08:30,19/03/2024 à 15:00 Rdv 13:00-15:00,43.582733,5.0025809,4.87174987793,43.9343986511
735297,St christophe sur conde (FR27),Avrigny (FR60),19/03/2024 à 15:00 Rdv 15:00-17:00,20/03/2024 à 11:00,49.2850151288818,0.6008015792494854,49.3817833,2.57932
733725,Villers guislain (FR59),Avrigny (FR60),12/03/2024 à 14:00 Rdv 14:00-17:00,13/03/2024 à 10:20,50.0377421,3.1519281,49.3817833,2.57932
736189,Arras (FR62),Bailly-romainvilliers (FR77),22/03/2024 à 09:00,22/03/2024 à 11:00,50.290277,2.776273,2.8247398,48.8471425
736240,Toulouse (FR31),Balma (FR31),18/03/2024 à 10:00,18/03/2024 à 16:00 Rdv 15:00-16:00,43.6044622,1.4442469,43.6259022,1.4853573
736269,Loeches (ES28),Barberà del vallès (ES08),15/03/2024 à 09:00,15/03/2024 à 18:00 Rdv 16:00-18:00,40.3837901,-3.4092281,0.0,0.0
736403,Jarnac (FR16),Bassens (FR33),28/03/2024 à 09:00,28/03/2024 à 11:30,45.6791182,-0.1740904,44.9015003,-0.5163222
736041,Bordeaux (FR33),Bassens (FR33),15/03/2024 à 10:00,15/03/2024 à 14:30,44.841225,-0.5800364,44.9015003,-0.5163222
735866,Bonneuil-sur-marne (FR94),Beauvais (FR60),19/03/2024 à 10:00 Rdv 10:00-12:00,19/03/2024 à 17:30,48.7737116,2.4869009,49.4300997,2.0823355
735430,Villeneuve-d\'ascq (FR59),Beauvais (FR60),13/03/2024 à 18:00,13/03/2024 à 19:00 Rdv 18:00-19:00,50.6193174,3.1314002,49.4300997,2.0823355
734251,Ambérieu-en-bugey (FR01),Besançon (FR25),18/03/2024 à 08:30,18/03/2024 à 12:00 Rdv 10:00-12:00,45.9584309,5.3595099,47.24267101995112,6.009830063015576
736043,Bourges (FR18),Bessines-sur-gartempe (FR87),15/03/2024 à 08:00,15/03/2024 à 12:00,47.0811658,2.399125,46.1090993,1.3685926
733138,Toulouse (FR31),Blagnac (FR31),19/03/2024 à 10:00 Rdv 10:00-12:00,19/03/2024 à 16:00,43.6044622,1.4442469,1.3767879,43.6450248
736040,Bassens (FR33),Bordeaux (FR33),15/03/2024 à 09:00,15/03/2024 à 10:00,44.9015003,-0.5163222,44.841225,-0.5800364
735935,Ambarès-et-lagrave (FR33),Bouchemaine (FR49),18/03/2024 à 09:00,18/03/2024 à 16:00 Rdv 14:00-16:00,44.9259011,-0.4881846,47.4234644,-0.6085356
736276,Rueil-malmaison (FR92),Boulogne-billancourt (FR92),20/03/2024 à 14:00,20/03/2024 à 15:00,48.8791007996,2.17808008194,0.0,0.0
734656,Péronne (FR80),Boulogne-sur-mer (FR62),14/03/2024 à 09:00,14/03/2024 à 12:00,49.9289578,2.9321899,50.7259985,1.6118771
736044,Bessines-sur-gartempe (FR87),Bourges (FR18),15/03/2024 à 12:00,15/03/2024 à 16:15,46.1090993,1.3685926,47.0811658,2.399125
736480,Liège (BE40),Braine-le-château (BE14),14/03/2024 à 13:00,14/03/2024 à 17:00,,,50.6827864,4.2669864
736468,Tavaux (FR39),Brebières (FR62),18/03/2024 à 14:00 Rdv 14:00-16:00,19/03/2024 à 18:00 Rdv 17:00-18:00,47.0371,5.40338,50.3372093,3.0224298
735842,Saint-brieuc (FR22),Brech (FR56),20/03/2024 à 17:00,21/03/2024 à 17:00,48.5141134,-2.7603283,47.721585,-2.9969193
734481,Villeneuve-d\'ascq (FR59),Bussy-lettrée (FR51),13/03/2024 à 10:30,13/03/2024 à 16:00 Rdv 14:00-16:00,50.6193174,3.1314002,48.80464,4.25947
733754,Buchelay (FR78),Carros (FR06),19/03/2024 à 10:00 Rdv 10:00-15:00,20/03/2024 à 12:00 Rdv 15:00-17:00,,,43.7846,7.18785
736122,Montpellier (FR34),Castelnau-d'estrétefonds (FR31),18/03/2024 à 11:30 Rdv 11:30-13:30,18/03/2024 à 16:00,43.6112422,3.8767337,43.78251,1.3590892
734318,Limoges (FR87),Castelnau-d'estrétefonds (FR31),18/03/2024 à 11:00 Rdv 11:00-13:00,18/03/2024 à 16:00,45.8354243,1.2644847,43.78251,1.3590892
735719,Lavardac (FR47),Castelnau-d\'estrétefonds (FR31),18/03/2024 à 09:00 Rdv 9:00-11:00,18/03/2024 à 16:00,44.1787867,0.297633,43.78251,1.3590892
734961,Tarbes (FR65),Castelnau-d\'estrétefonds (FR31),20/03/2024 à 12:00 Rdv 12:00-14:00,20/03/2024 à 16:00,43.232858,781021.0,43.78251,1.3590892
735814,Villemur-sur-tarn (FR31),Castelnau-d\'estrétefonds (FR31),15/03/2024 à 12:30 Rdv 12:30-14:30,15/03/2024 à 16:00,43.8650448,1.5039825,43.78251,1.3590892
736218,Miramas (FR13),Chambaron sur morge (FR63),15/03/2024 à 09:00,15/03/2024 à 17:00 Rdv 15:00-17:00,43.582733,5.0025809,45.9566189,3.1453968751576475
732040,Hasselt (BE35),Charleroi (BE60),25/03/2024 à 08:30,25/03/2024 à 10:30,50.9303735,5.3378043,50.4116233,4.444528
729580,Saint-barthelemy-d'anjou (FR49),Cholet (FR49),14/03/2024 à 12:01,14/03/2024 à 16:00,47.4683081,-0.4932941,47.0617293,-0.8801359
735495,Neuvy (FR41),Clamecy (FR58),19/03/2024 à 11:00,19/03/2024 à 17:00 Rdv 15:00-17:00,48.7469304,3.5177618,49.4286111,3.3619444
736238,Marseille (FR13),Corbas (FR69),18/03/2024 à 14:00 Rdv 14:00-16:00,18/03/2024 à 16:00,43.2961743,5.3699525,45.6662663,4.9015205
736309,Algete (ES28),Cullera (ES46),15/03/2024 à 09:00,15/03/2024 à 16:00 Rdv 14:00-16:00,0.0,0.0,39.1647217,-0.2542313
735728,Marckolsheim (FR67),Dijon (FR21),19/03/2024 à 08:30,19/03/2024 à 16:00 Rdv 14:00-16:00,48.165441,7.5444161,47.3215806,5.0414701
736412,Montélimar (FR26),Donzère (FR26),14/03/2024 à 15:30,15/03/2024 à 15:30,44.5579391,4.750318,44.4442014,4.7073439
736340,Montélimar (FR26),Donzère (FR26),12/03/2024 à 11:15,14/03/2024 à 14:45,44.5579391,4.750318,44.4442014,4.7073439
731272,Bourges (FR18),Déols (FR36),12/03/2024 à 08:00,12/03/2024 à 17:00,47.0811658,2.399125,46.8267767,1.7010433
735454,Bassens (FR33),Essarts-en-bocage (FR85),25/03/2024 à 13:00,25/03/2024 à 16:30,44.9015003,-0.5163222,46.78605775,-1.2528102863462225
734222,Laval (FR53),Fleury-mérogis (FR91),21/03/2024 à 12:00 Rdv 12:00-14:00,21/03/2024 à 16:00,48.0706687,-0.7734022,48.629965,2.3609313
734262,Laval (FR53),Fleury-mérogis (FR91),19/03/2024 à 11:00 Rdv 11:00-13:00,19/03/2024 à 16:00,48.0706687,-0.7734022,48.629965,2.3609313
734081,Rouen (FR76),Fleury-mérogis (FR91),20/03/2024 à 11:00 Rdv 11:00-13:00,20/03/2024 à 16:00,49.4404591,1.0939658,48.629965,2.3609313
734075,Lille (FR59),Fleury-mérogis (FR91),14/03/2024 à 14:00 Rdv 14:00-16:00,15/03/2024 à 12:00,50.6365654,3.0635282,48.629965,2.3609313
734215,Quimper (FR29),Fleury-mérogis (FR91),20/03/2024 à 14:00 Rdv 14:00-16:00,21/03/2024 à 12:00,47.9960325,-4.1024782,48.629965,2.3609313
734368,Quimper (FR29),Fleury-mérogis (FR91),20/03/2024 à 14:00 Rdv 14:00-16:00,21/03/2024 à 12:00,47.9960325,-4.1024782,48.629965,2.3609313
734200,Rouen (FR76),Fleury-mérogis (FR91),20/03/2024 à 11:00 Rdv 11:00-13:00,20/03/2024 à 16:00,49.4404591,1.0939658,48.629965,2.3609313
734243,Rouen (FR76),Fleury-mérogis (FR91),20/03/2024 à 11:00 Rdv 11:00-13:00,20/03/2024 à 16:00,49.4404591,1.0939658,48.629965,2.3609313
734079,Rouen (FR76),Fleury-mérogis (FR91),20/03/2024 à 11:00 Rdv 11:00-13:00,20/03/2024 à 16:00,49.4404591,1.0939658,48.629965,2.3609313
734198,Rouen (FR76),Fleury-mérogis (FR91),20/03/2024 à 11:00 Rdv 11:00-13:00,20/03/2024 à 16:00,49.4404591,1.0939658,48.629965,2.3609313
734141,Rouen (FR76),Fleury-mérogis (FR91),20/03/2024 à 11:00 Rdv 11:00-13:00,20/03/2024 à 16:00,49.4404591,1.0939658,48.629965,2.3609313
735402,Ungersheim (FR68),Forbach (FR57),20/03/2024 à 09:00 Rdv 9:00-11:00,20/03/2024 à 16:00,47.877868,7.304028,49.1862822,6.8958562
735477,Pierre de bresse (FR71),Forbach (FR57),14/03/2024 à 09:30 Rdv 9:30-11:00,14/03/2024 à 14:55,46.8829007,5.2608283,49.1862822,6.8958562
736426,Niort (FR79),Fouras (FR17),18/03/2024 à 09:00 Rdv 9:00-10:00,18/03/2024 à 12:30 Rdv 11:30-12:30,46.3239233,-0.4646064,45.9883689,-1.0935837
736454,Wavrin (FR59),Frelinghien (FR59),20/03/2024 à 08:30,20/03/2024 à 12:30 Rdv 10:30-12:30,50.570559,2.932545,,
735597,Geel (BE24),Geel (BE24),15/03/2024 à 11:00,15/03/2024 à 14:00 Rdv 13:00-14:00,51.1610826,4.9903187,51.1610826,4.9903187
735598,Geel (BE24),Geel (BE24),15/03/2024 à 13:00 Rdv 13:00-14:00,15/03/2024 à 15:15,51.1610826,4.9903187,51.1610826,4.9903187
736477,Douai (FR59),Gennevilliers (FR92),15/03/2024 à 08:00,15/03/2024 à 12:30 Rdv 10:30-12:30,50.3675677,3.0804641,48.9254221,2.2940122
736055,Tournai (BE75),Gent (BE90),18/03/2024 à 09:00,18/03/2024 à 17:00,50.6056458,3.3878179,51.0538286,3.7250121
734267,Ambérieu-en-bugey (FR01),Grenoble (FR38),26/03/2024 à 08:30,26/03/2024 à 12:00 Rdv 10:00-12:00,45.9584309,5.3595099,45.1875602,5.7357819
736187,Machelen (BE18),Heist-op-den-berg (BE22),18/03/2024 à 08:00,18/03/2024 à 13:00 Rdv 11:00-13:00,50.903150350789616,4.449248232844452,51.07913920390559,4.70224973042388
736326,Taverny (FR95),Heudreville-sur-eure (FR27),15/03/2024 à 09:00 Rdv 9:00-11:00,15/03/2024 à 13:00 Rdv 11:00-13:00,49.0265888,2.2234971,49.1403957,1.1874548
735927,Roeselare (BE88),Izegem (BE88),14/03/2024 à 09:00,14/03/2024 à 17:00,50.9444948,3.124765,50.9137743,3.209106585214543
735767,Asse (BE17),Kruibeke (BE91),25/03/2024 à 10:00,25/03/2024 à 15:00,50.9094333,4.2015646,51.17625475,4.298036873275151
736258,Orvault (FR44),L\'herbergement (FR85),18/03/2024 à 10:00 Rdv 10:00-11:00,18/03/2024 à 14:00,-1.6194319725,47.2511912196,0.0,0.0
728942,Chartres-de-bretagne (FR35),La chapelle-sur-erdre (FR44),18/03/2024 à 08:00,18/03/2024 à 10:00 Rdv 9:00-10:00,48.0432406,-1.7082369,47.2996846,-1.5518632
736420,Montoir-de-bretagne (FR44),La plaine-sur-mer (FR44),20/03/2024 à 08:00,20/03/2024 à 13:00,47.3285909,-2.1543171,,
735779,Marseille (FR13),La roche-de-glun (FR26),20/03/2024 à 11:00 Rdv 11:00-13:00,20/03/2024 à 16:00,43.2961743,5.3699525,45.0133527,4.8443331
731524,Villeneuve-loubet (FR06),La roche-de-glun (FR26),13/03/2024 à 15:00 Rdv 15:00-17:00,14/03/2024 à 10:00,43.6579947,7.1217592,45.0133527,4.8443331
732558,Aix-en-provence (FR13),La roche-de-glun (FR26),18/03/2024 à 12:00 Rdv 12:00-14:00,18/03/2024 à 16:00,43.5298424,5.4474738,45.0133527,4.8443331
735664,Niort (FR79),La roche-sur-yon (FR85),18/03/2024 à 08:30 Rdv 8:30-9:30,18/03/2024 à 12:00 Rdv 11:00-12:00,46.3239233,-0.4646064,46.6705431,-1.4269698
735517,Tarnos (FR40),Labenne (FR40),15/03/2024 à 09:00,15/03/2024 à 12:00 Rdv 10:00-12:00,43.5405622,-1.4611915,43.5977,-1.42811
734874,Toulouse (FR31),Laguiole (FR12),22/03/2024 à 09:00,22/03/2024 à 15:00 Rdv 14:00-15:00,43.6044622,1.4442469,44.6839098,2.8468743
735237,Aubagne (FR13),Lançon-provence (FR13),15/03/2024 à 09:00,15/03/2024 à 10:30,43.2924385,5.5703031,43.5913062,5.1258628
734221,Valenton (FR94),Laval (FR53),21/03/2024 à 08:30,21/03/2024 à 14:00 Rdv 12:00-14:00,48.7443189,2.4699741,48.0706687,-0.7734022
734260,Wavrin (FR59),Laval (FR53),18/03/2024 à 10:00 Rdv 10:00-15:00,19/03/2024 à 13:00 Rdv 11:00-13:00,50.570559,2.932545,48.0706687,-0.7734022
736180,Malansac (FR56),Le cellier (FR44),29/03/2024 à 09:00,29/03/2024 à 11:30,47.6772003174,-2.2974998951,47.3186735,-1.3465357
735785,Rennes (FR35),Le cellier (FR44),14/03/2024 à 11:00 Rdv 11:00-13:00,14/03/2024 à 16:00,48.1113387,-1.6800198,47.3186735,-1.3465357
736448,Tours (FR37),Le cellier (FR44),20/03/2024 à 12:00 Rdv 12:00-14:00,20/03/2024 à 16:30,,,47.3186735,-1.3465357
728943,La chapelle-sur-erdre (FR44),Le cellier (FR44),18/03/2024 à 09:00 Rdv 9:00-10:00,18/03/2024 à 16:00,47.2996846,-1.5518632,47.3186735,-1.3465357
736220,Le rheu (FR35),Le cellier (FR44),18/03/2024 à 10:00 Rdv 10:00-12:00,18/03/2024 à 16:00,48.101097,-1.795384,47.3186735,-1.3465357
736449,Mende (FR48),Le controis-en-sologne (FR41),18/03/2024 à 10:00,18/03/2024 à 18:00,44.5180226,3.4991057,47.4334729,1.3497811449782977
736103,Ambarès-et-lagrave (FR33),Le passage (FR47),14/03/2024 à 09:00,14/03/2024 à 12:30 Rdv 10:30-12:30,44.9259011,-0.4881846,45.5326,5.51253
736282,Chartres-de-bretagne (FR35),Le rheu (FR35),15/03/2024 à 08:30,15/03/2024 à 12:00 Rdv 10:00-12:00,48.0432406,-1.7082369,48.101097,-1.795384
736219,Chartres-de-bretagne (FR35),Le rheu (FR35),18/03/2024 à 08:30,18/03/2024 à 12:00 Rdv 10:00-12:00,48.0432406,-1.7082369,48.101097,-1.795384
736278,Loeches (ES28),Lerín (ES31),18/03/2024 à 09:00,18/03/2024 à 15:00 Rdv 13:00-15:00,40.3837901,-3.4092281,42.4827069,-1.9727192
730524,La chapelle-des-fougeretz (FR35),Les andelys (FR27),18/03/2024 à 09:00,18/03/2024 à 13:30,48.178066,-1.7341163,49.2469193,1.4215534
736446,Locquignol (FR59),Lieu-saint-amand (FR59),25/03/2024 à 12:00 Rdv 12:00-14:00,25/03/2024 à 16:00,,,50.2729141,3.3461187
734074,Wavrin (FR59),Lille (FR59),14/03/2024 à 08:30,14/03/2024 à 16:00 Rdv 14:00-16:00,50.570559,2.932545,50.6365654,3.0635282
734317,Castelnau-d'estrétefonds (FR31),Limoges (FR87),18/03/2024 à 08:30,18/03/2024 à 13:00 Rdv 11:00-13:00,43.78251,1.3590892,45.8354243,1.2644847
735174,Tarnos (FR40),Lizos (FR65),15/03/2024 à 08:00,15/03/2024 à 10:00,43.5405622,-1.4611915,43.2626971,0.1446687
736445,Wavrin (FR59),Locquignol (FR59),25/03/2024 à 08:30,25/03/2024 à 14:00 Rdv 12:00-14:00,50.570559,2.932545,,
736274,Arc-et-senans (FR25),Lormont (FR33),20/03/2024 à 12:00,21/03/2024 à 12:00,5.77872991562,47.0317001343,-0.5182007,44.876407
736443,Ayamonte (ES21),"Luisiana, la (ES41)",15/03/2024 à 10:00 Rdv 10:00-12:00,15/03/2024 à 17:30,37.215797,-7.4060169,303891.0,-9383689.0
736236,Esneux (BE41),Machelen (BE18),20/03/2024 à 08:00,20/03/2024 à 15:00 Rdv 9:45-15:00,0.0,0.0,50.903150350789616,4.449248232844452
736335,Heist-op-den-berg (BE22),Machelen (BE18),18/03/2024 à 09:00,18/03/2024 à 15:00 Rdv 10:00-15:00,51.07913920390559,4.70224973042388,50.903150350789616,4.449248232844452
736470,Tienen (BE33),Machelen (BE18),27/03/2024 à 14:00,27/03/2024 à 16:00 Rdv 15:00-16:00,50.6509998,2.4660832,50.903150350789616,4.449248232844452
736339,Boortmeerbeek (BE31),Machelen (BE18),18/03/2024 à 08:00,18/03/2024 à 15:00 Rdv 8:45-15:00,50.978285850000006,4.575800524999997,50.903150350789616,4.449248232844452
736246,Sint-pieters-leeuw (BE16),Machelen (BE18),21/03/2024 à 09:00,21/03/2024 à 15:00 Rdv 9:45-15:00,0.0,0.0,50.903150350789616,4.449248232844452
736188,Heist-op-den-berg (BE22),Machelen (BE18),18/03/2024 à 11:00 Rdv 11:00-13:00,18/03/2024 à 15:30,51.07913920390559,4.70224973042388,50.903150350789616,4.449248232844452
736304,Santa perpètua de mogoda (ES08),Madrid (ES28),15/03/2024 à 09:00,15/03/2024 à 18:00 Rdv 16:00-18:00,41.5328106,2.1823309,40.4167047,-3.7035825
736289,Quincampoix (FR76),Maromme (FR76),12/03/2024 à 10:45,15/03/2024 à 15:00,49.521,1.17464,49.476737,1.0308208
736478,Lambres-lez-douai (FR59),Marquise (FR62),20/03/2024 à 08:15,20/03/2024 à 15:00,,,,
735595,La farlede (FR83),Marseille (FR13),28/03/2024 à 08:30,28/03/2024 à 10:00,43.1597,6.04317,43.2961743,5.3699525
735778,Miramas (FR13),Marseille (FR13),20/03/2024 à 08:30,20/03/2024 à 13:00 Rdv 11:00-13:00,43.582733,5.0025809,43.2961743,5.3699525
735192,Saint-ail (FR54),Maxéville (FR54),22/03/2024 à 08:15,22/03/2024 à 12:00,49.1808501,5.9960901,48.7119046,6.1641314
736216,Machelen (BE18),Mechelen (BE28),19/03/2024 à 08:00,19/03/2024 à 15:00 Rdv 8:45-15:00,50.903150350789616,4.449248232844452,51.0281381,4.4803453
736362,Salon de provence (FR13),Meyreuil (FR13),08/04/2024 à 09:00,08/04/2024 à 15:00,43.6405237,5.0980225,43.4867359,5.4952155
736416,Montelimar (FR26),Meyreuil (FR13),19/03/2024 à 09:00,19/03/2024 à 15:30,44.5579391,4.750318,43.4867359,5.4952155
731389,Paris (FR75),Mitry-mory (FR77),21/03/2024 à 14:00 Rdv 14:00-16:00,22/03/2024 à 12:00,48.8534951,2.3483915,48.9839674,2.6183971
736286,Seseña (ES45),Mojácar (ES04),21/03/2024 à 11:45 Rdv 11:45-13:45,21/03/2024 à 19:00 Rdv 17:00-19:00,40.1048269,-3.6963093,37.1402087,-1.8510071
735400,La bruffiere (FR85),Montauban-de-bretagne (FR35),20/03/2024 à 10:00 Rdv 10:00-12:00,20/03/2024 à 16:00,47.02245800712956,-1.191194223581551,48.1998838,-2.0462319
735855,Loudeac (FR22),Montauban-de-bretagne (FR35),15/03/2024 à 14:00 Rdv 14:00-16:00,15/03/2024 à 17:00,48.1762534,-2.7535644,48.1998838,-2.0462319
735450,Ambérieu-en-bugey (FR01),Montbonnot saint martin (FR38),01/04/2024 à 09:20,01/04/2024 à 15:00 Rdv 13:00-15:00,45.9584309,5.3595099,45.2264498,5.80266
736287,Quincieux (FR69),Montceau-les-mines (FR71),18/03/2024 à 09:35,18/03/2024 à 12:00 Rdv 10:00-12:00,45.90900965105747,4.762067991264464,46.6740455,4.3631681
735631,Saint-laurent-sur-sèvre (FR85),Montoir-de-bretagne (FR44),25/03/2024 à 11:30,25/03/2024 à 15:00,46.9597454,-0.8888005,47.3285909,-2.1543171
736306,Cenon (FR33),Montpellier (FR34),19/03/2024 à 09:00 Rdv 9:00-10:00,19/03/2024 à 17:00 Rdv 16:00-17:00,44.8552882,-0.5239863,43.6112422,3.8767337
736121,Miramas (FR13),Montpellier (FR34),18/03/2024 à 08:30,18/03/2024 à 13:30 Rdv 11:30-13:30,43.582733,5.0025809,43.6112422,3.8767337
736411,Donzère (FR26),Montélimar (FR26),12/03/2024 à 12:00,14/03/2024 à 15:30,44.4442014,4.7073439,44.5579391,4.750318
736390,Wijnegem (BE21),Mortsel (BE26),15/03/2024 à 10:00 Rdv 10:00-11:00,15/03/2024 à 13:15 Rdv 12:15-13:15,51.2270761,4.5225318,51.1704119,4.4566996
736005,Valbonne (FR06),Mougins (FR06),19/03/2024 à 14:45 Rdv 14:45-16:00,19/03/2024 à 18:30,43.641141,7.0086255,43.6008898,6.9963543
735527,Saint-ail (FR54),Mulhouse (FR68),18/03/2024 à 08:15,18/03/2024 à 14:30,49.1808501,5.9960901,47.7467233,7.3389937
736148,Saint-ail (FR54),Mulhouse (FR68),25/03/2024 à 08:15,25/03/2024 à 12:00,49.1808501,5.9960901,47.7467233,7.3389937
735932,Le bouscat (FR33),Mérignac (FR33),26/03/2024 à 09:00,26/03/2024 à 12:00 Rdv 10:00-12:00,44.8661755,-0.5992399,44.842168,-0.6469022
736293,Marckolsheim (FR67),Nancy (FR54),18/03/2024 à 12:00,18/03/2024 à 16:00 Rdv 14:00-16:00,48.165441,7.5444161,48.6937223,6.1834097
735566,Montoir-de-bretagne (FR44),Nantes (FR44),18/03/2024 à 08:30,18/03/2024 à 12:00 Rdv 10:00-12:00,47.3285909,-2.1543171,47.2186371,-1.5541362
736473,Saint-étienne-de-montluc (FR44),Nantes (FR44),22/03/2024 à 09:00 Rdv 9:00-11:00,22/03/2024 à 12:00,47.2739351,-1.7810546,47.2186371,-1.5541362
735791,Le castellet (FR83),Nice (FR06),20/03/2024 à 13:00 Rdv 13:00-15:00,20/03/2024 à 18:30,,,43.7009358,7.2683912
736002,Sainte-anne-sur-brivet (FR44),Niort (FR79),20/03/2024 à 11:00 Rdv 11:00-12:00,20/03/2024 à 16:00 Rdv 15:00-16:00,47.4596949,-2.005667,46.3239233,-0.4646064
736066,Sautron (FR44),Niort (FR79),21/03/2024 à 11:00 Rdv 11:00-12:00,21/03/2024 à 16:00 Rdv 15:00-16:00,47.2632611,-1.6683537,46.3239233,-0.4646064
736053,Saint-méen-le-grand (FR35),Niort (FR79),19/03/2024 à 14:00 Rdv 14:00-15:00,20/03/2024 à 10:15 Rdv 9:15-10:15,48.1894709,-2.1911338,46.3239233,-0.4646064
736427,Fouras (FR17),Niort (FR79),18/03/2024 à 11:30 Rdv 11:30-12:30,18/03/2024 à 16:15 Rdv 15:15-16:15,45.9883689,-1.0935837,46.3239233,-0.4646064
735665,La roche-sur-yon (FR85),Niort (FR79),18/03/2024 à 11:00 Rdv 11:00-12:00,18/03/2024 à 16:00 Rdv 15:00-16:00,46.6705431,-1.4269698,46.3239233,-0.4646064
736385,Santiago de compostela (ES15),Oviedo (ES33),14/03/2024 à 09:00,14/03/2024 à 16:30,42.8804219,-8.5458608,43.3618625,-5.8483581
731388,Corbas (FR69),Paris (FR75),21/03/2024 à 08:30,21/03/2024 à 16:00 Rdv 14:00-16:00,45.6662663,4.9015205,48.8534951,2.3483915
736298,Loeches (ES28),Ponte caldelas (ES36),15/03/2024 à 09:00,15/03/2024 à 18:00 Rdv 16:00-18:00,40.3837901,-3.4092281,42.3887558,-8.5022999
736048,Nice (FR06),Puyloubier (FR13),25/03/2024 à 08:00 Rdv 8:00-9:00,25/03/2024 à 14:00 Rdv 12:00-14:00,43.7009358,7.2683912,43.5259569,5.6746188
734657,Boulogne-sur-mer (FR62),Péronne (FR80),14/03/2024 à 15:00,14/03/2024 à 17:00 Rdv 15:00-17:00,50.7259985,1.6118771,49.9289578,2.9321899
734214,Valenton (FR94),Quimper (FR29),19/03/2024 à 10:00 Rdv 10:00-15:00,20/03/2024 à 16:00 Rdv 14:00-16:00,48.7443189,2.4699741,47.9960325,-4.1024782
734367,Villevêque (FR49),Quimper (FR29),20/03/2024 à 08:30,20/03/2024 à 16:00 Rdv 14:00-16:00,47.5601026,-0.4230772,47.9960325,-4.1024782
735784,Chartres-de-bretagne (FR35),Rennes (FR35),14/03/2024 à 08:30,14/03/2024 à 13:00 Rdv 11:00-13:00,48.0432406,-1.7082369,48.1113387,-1.6800198
736334,Ambarès-et-lagrave (FR33),Rochecorbon (FR37),18/03/2024 à 09:00,18/03/2024 à 16:00 Rdv 14:00-16:00,44.9259011,-0.4881846,47.4141177,0.7549178
734140,Valenton (FR94),Rouen (FR76),20/03/2024 à 08:30,20/03/2024 à 13:00 Rdv 11:00-13:00,48.7443189,2.4699741,49.4404591,1.0939658
734242,Valenton (FR94),Rouen (FR76),20/03/2024 à 08:30,20/03/2024 à 13:00 Rdv 11:00-13:00,48.7443189,2.4699741,49.4404591,1.0939658
734078,Avrigny (FR60),Rouen (FR76),20/03/2024 à 08:30,20/03/2024 à 13:00 Rdv 11:00-13:00,49.3817833,2.57932,49.4404591,1.0939658
734080,Avrigny (FR60),Rouen (FR76),20/03/2024 à 08:30,20/03/2024 à 13:00 Rdv 11:00-13:00,49.3817833,2.57932,49.4404591,1.0939658
734197,Avrigny (FR60),Rouen (FR76),20/03/2024 à 08:30,20/03/2024 à 13:00 Rdv 11:00-13:00,49.3817833,2.57932,49.4404591,1.0939658
734199,Avrigny (FR60),Rouen (FR76),20/03/2024 à 08:30,20/03/2024 à 13:00 Rdv 11:00-13:00,49.3817833,2.57932,49.4404591,1.0939658
730526,Les andelys (FR27),Saint-aignan-de-grand-lieu (FR44),18/03/2024 à 14:00,18/03/2024 à 16:00,49.2469193,1.4215534,47.1224436,-1.6345992
736262,Saint-aignan-grandlieu (FR44),Saint-aignan-grandlieu (FR44),18/03/2024 à 11:00 Rdv 11:00-13:00,18/03/2024 à 16:00,47.124601,-1.630937,47.124601,-1.630937
736325,Saint-herblain (FR44),Saint-aignan-grandlieu (FR44),19/03/2024 à 10:30 Rdv 10:30-12:30,19/03/2024 à 16:00,47.2238156,-1.6529932,47.124601,-1.630937
736261,Montoir-de-bretagne (FR44),Saint-aignan-grandlieu (FR44),18/03/2024 à 08:30,18/03/2024 à 13:00 Rdv 11:00-13:00,47.3285909,-2.1543171,47.124601,-1.630937
736149,Mulhouse (FR68),Saint-ail (FR54),25/03/2024 à 12:00,25/03/2024 à 16:30,47.7467233,7.3389937,49.1808501,5.9960901
736431,Illkirch-graffenstaden (FR67),Saint-ail (FR54),21/03/2024 à 14:00 Rdv 14:00-16:00,22/03/2024 à 09:30,48.5298611,7.7116218,49.1808501,5.9960901
735988,Bassens (FR33),Saint-aubin-de-blaye (FR33),21/03/2024 à 14:00,21/03/2024 à 16:00,44.9015003,-0.5163222,45.2662866,-0.5641823
729579,Cholet (FR49),Saint-barthelemy-d'anjou (FR49),14/03/2024 à 10:00,14/03/2024 à 12:00,47.0617293,-0.8801359,47.4683081,-0.4932941
735360,Castelnau-d\'estrétefonds (FR31),Saint-cernin-de-larche (FR19),02/04/2024 à 09:00,02/04/2024 à 12:00 Rdv 10:00-12:00,43.78251,1.3590892,45.1030652,1.4144957
735630,Montoir-de-bretagne (FR44),Saint-laurent-sur-sèvre (FR85),25/03/2024 à 08:00,25/03/2024 à 11:30,47.3285909,-2.1543171,46.9597454,-0.8888005
734607,Laval (FR53),Saint-loup-du-dorat (FR53),13/03/2024 à 09:00 Rdv 9:00-11:00,13/03/2024 à 13:00 Rdv 12:00-13:00,48.0706687,-0.7734022,47.8903609,-0.4164242
736272,Villejuif (FR94),Saint-maximin (FR60),19/03/2024 à 15:00,19/03/2024 à 17:00 Rdv 15:00-17:00,,,43.9932479,4.4498929
736313,Miramas (FR13),Saint-maximin-la-sainte-baume (FR83),20/03/2024 à 08:30,20/03/2024 à 16:00 Rdv 14:00-16:00,43.582733,5.0025809,43.4522053,5.862294
736052,Niort (FR79),Saint-méen-le-grand (FR35),19/03/2024 à 08:30 Rdv 8:30-9:30,19/03/2024 à 15:00 Rdv 14:00-15:00,46.3239233,-0.4646064,48.1894709,-2.1911338
734480,Attin (FR62),Saint-quentin (FR02),19/03/2024 à 12:00,19/03/2024 à 16:15 Rdv 14:15-16:15,50.4878746,1.7437837,49.8465253,3.2876843
735646,Mougins (FR06),Saint-raphaël (FR83),26/03/2024 à 10:45 Rdv 10:45-11:45,26/03/2024 à 15:00 Rdv 13:00-15:00,43.6008898,6.9963543,45.3043079,1.0747165
735729,Dijon (FR21),Saint-vulbas (FR01),19/03/2024 à 14:00 Rdv 14:00-16:00,20/03/2024 à 12:00,47.3215806,5.0414701,45.8306,5.28959
734895,Tarnos (FR40),Saint-étienne-de-baïgorry (FR64),13/03/2024 à 08:00,13/03/2024 à 16:00 Rdv 14:00-16:00,43.5405622,-1.4611915,43.176891,-1.343027
736472,Nantes (FR44),Saint-étienne-de-montluc (FR44),20/03/2024 à 14:00 Rdv 14:00-16:00,20/03/2024 à 16:45,47.2186371,-1.5541362,47.2739351,-1.7810546
736001,Niort (FR79),Sainte-anne-sur-brivet (FR44),20/03/2024 à 08:30 Rdv 8:30-9:30,20/03/2024 à 12:00 Rdv 11:00-12:00,46.3239233,-0.4646064,47.4596949,-2.005667
736341,Miramas (FR13),Salon de provence (FR13),08/04/2024 à 08:00,08/04/2024 à 11:00 Rdv 9:00-11:00,43.582733,5.0025809,43.6405237,5.0980225
735687,Villevêque (FR49),Saumos (FR33),18/03/2024 à 09:00,18/03/2024 à 16:00 Rdv 14:00-16:00,47.5601026,-0.4230772,44.9203793,-0.9876045
736065,Niort (FR79),Sautron (FR44),21/03/2024 à 08:30 Rdv 8:30-9:30,21/03/2024 à 12:00 Rdv 11:00-12:00,46.3239233,-0.4646064,47.2632611,-1.6683537
732473,Watermael-boitsfort (BE11),Sint-niklaas (BE91),08/03/2024 à 09:30,13/03/2024 à 15:30,50.7981063,4.4176441,51.1646685,4.1395124
736037,Saint-georges-d'esperanche (FR38),St priest (FR69),15/03/2024 à 09:00,15/03/2024 à 16:00,45.5574829,5.0808076,45.699911230631024,4.940050948355273
734960,Bassens (FR33),Tarbes (FR65),20/03/2024 à 09:30,20/03/2024 à 14:00 Rdv 12:00-14:00,44.9015003,-0.5163222,43.232858,781021.0
735518,Labenne (FR40),Tarnos (FR40),15/03/2024 à 10:00 Rdv 10:00-12:00,15/03/2024 à 15:00,43.5977,-1.42811,43.5405622,-1.4611915
735412,Tarnos (FR40),Tarnos (FR40),19/03/2024 à 14:00 Rdv 14:00-16:00,19/03/2024 à 16:30,43.5405622,-1.4611915,43.5405622,-1.4611915
735175,Lizos (FR65),Tarnos (FR40),15/03/2024 à 10:00,15/03/2024 à 16:00,43.2626971,0.1446687,43.5405622,-1.4611915
735411,Tarnos (FR40),Tarnos (FR40),19/03/2024 à 08:00,19/03/2024 à 16:00 Rdv 14:00-16:00,43.5405622,-1.4611915,43.5405622,-1.4611915
736327,Heudreville-sur-eure (FR27),Taverny (FR95),15/03/2024 à 11:00 Rdv 11:00-13:00,15/03/2024 à 17:00 Rdv 13:15-17:00,49.1403957,1.1874548,49.0265888,2.2234971
736227,Algete (ES28),Tharsis (ES21),15/03/2024 à 09:00,15/03/2024 à 18:00 Rdv 16:00-18:00,0.0,0.0,37.600487,-7.1200864
736336,Saint-fons (FR69),Thèze (FR04),14/03/2024 à 11:15,14/03/2024 à 16:45 Rdv 14:45-16:45,,,,
736447,Montoir-de-bretagne (FR44),Tours (FR37),20/03/2024 à 08:30,20/03/2024 à 14:00 Rdv 12:00-14:00,47.3285909,-2.1543171,,
736004,Mougins (FR06),Valbonne (FR06),19/03/2024 à 14:00,19/03/2024 à 16:00 Rdv 14:45-16:00,43.6008898,6.9963543,43.641141,7.0086255
736232,Algete (ES28),"Vall duixó, la (ES12)",15/03/2024 à 09:00,15/03/2024 à 16:30 Rdv 14:30-16:30,0.0,0.0,0.0,0.0
734992,Le mans (FR72),Varaville (FR14),18/03/2024 à 10:00,18/03/2024 à 15:00 Rdv 13:00-15:00,48.0073849,0.1967849,49.253386,-0.1582652
736284,Lille (FR59),Vendin-lès-béthune (FR62),19/03/2024 à 12:00 Rdv 12:00-14:00,19/03/2024 à 16:00,50.6365654,3.0635282,50.548777,2.6008182
736469,Isneauville (FR76),Villedieu-les-poêles (FR50),18/03/2024 à 09:00,18/03/2024 à 12:00,49.4988394,1.1416384,48.8381226,-1.2220882
736271,Saint-maximin (FR60),Villejuif (FR94),19/03/2024 à 09:00,19/03/2024 à 11:30,43.9932479,4.4498929,,
735813,Bassens (FR33),Villemur-sur-tarn (FR31),15/03/2024 à 08:30,15/03/2024 à 14:30 Rdv 12:30-14:30,44.9015003,-0.5163222,43.8650448,1.5039825
735429,Beauvais (FR60),Villeneuve-d\'ascq (FR59),13/03/2024 à 11:30,13/03/2024 à 14:30,49.4300997,2.0823355,50.6193174,3.1314002
731523,Corbas (FR69),Villeneuve-loubet (FR06),13/03/2024 à 08:30 Rdv 8:30-10:30,13/03/2024 à 17:00 Rdv 15:00-17:00,45.6662663,4.9015205,43.6579947,7.1217592
736481,Laxou (FR54),Villers-lès-nancy (FR54),13/03/2024 à 14:00,13/03/2024 à 16:30,,,,
736300,Brest (FR29),Villevêque (FR49),19/03/2024 à 09:00 Rdv 9:00-11:00,19/03/2024 à 16:00,48.385361,-4.476705,47.5601026,-0.4230772
725803,Bordeaux cedex (FR33),Villevêque (FR49),18/03/2024 à 09:00 Rdv 9:00-11:00,18/03/2024 à 16:00,44.7950141,-0.6164051,47.5601026,-0.4230772
735706,Romorantin-lanthenay (FR41),Villevêque (FR49),18/03/2024 à 09:00 Rdv 9:00-11:00,18/03/2024 à 16:00,47.3592182,1.7434925,47.5601026,-0.4230772
736434,Etterbeek (BE10),Vilvoorde (BE18),15/03/2024 à 08:30 Rdv 8:30-10:30,15/03/2024 à 11:30 Rdv 10:30-11:30,50.8361447,4.3861737,50.928711,4.423126
736162,La motte-servolex (FR73),Vénissieux (FR69),27/03/2024 à 09:00,27/03/2024 à 11:30,45.5984113,5.8767935,45.6977109,4.8855966
729588,Marignier (FR74),Vénissieux (FR69),15/03/2024 à 09:00,15/03/2024 à 11:30,46.0903808,6.4992902,45.6977109,4.8855966
735730,Tongeren (BE37),Waregem (BE87),25/03/2024 à 10:30,25/03/2024 à 16:00,50.7806267,5.4639172,50.8868222,3.4323622
736315,Lesquin (FR59),Wavrin (FR59),25/03/2024 à 09:00 Rdv 9:00-11:00,25/03/2024 à 16:00,50.5888,3.10997,50.570559,2.932545
735688,Lestrem (FR62),Wavrin (FR59),22/03/2024 à 09:00 Rdv 9:00-11:00,22/03/2024 à 16:00,50.6216212,2.6857534,50.570559,2.932545
736389,Mortsel (BE26),Wijnegem (BE21),15/03/2024 à 09:00 Rdv 9:00-10:00,15/03/2024 à 11:00 Rdv 10:00-11:00,51.1704119,4.4566996,51.2270761,4.5225318
736414,Zwijndrecht (BE20),Zwijndrecht (BE20),15/03/2024 à 08:00 Rdv 8:00-9:00,15/03/2024 à 10:45,51.8162227,4.6405166,51.8162227,4.6405166
736404,Zwijndrecht (BE20),Zwijndrecht (BE20),15/03/2024 à 08:00 Rdv 8:00-9:00,15/03/2024 à 11:00 Rdv 10:00-11:00,51.8162227,4.6405166,51.8162227,4.6405166
736405,Zwijndrecht (BE20),Zwijndrecht (BE20),15/03/2024 à 10:00 Rdv 10:00-11:00,15/03/2024 à 13:15 Rdv 12:15-13:15,51.8162227,4.6405166,51.8162227,4.6405166
736432,Zwijndrecht (BE20),Zwijndrecht (BE20),15/03/2024 à 10:00 Rdv 10:00-11:00,15/03/2024 à 11:45,51.8162227,4.6405166,51.8162227,4.6405166
736418,Zwijndrecht (BE20),Zwijndrecht (BE20),15/03/2024 à 08:00 Rdv 8:00-9:00,15/03/2024 à 11:45 Rdv 9:45-11:45,51.8162227,4.6405166,51.8162227,4.6405166
736423,Zwijndrecht (BE20),Zwijndrecht (BE20),15/03/2024 à 08:30 Rdv 8:30-9:30,15/03/2024 à 11:15,51.8162227,4.6405166,51.8162227,4.6405166
