IDtrajet,Ville de Départ,Ville d'arrivée,A partir du,Jusqu'au,Départ_Latitude,Départ_Longitude,Arrivé_Latitude,Arrivé_Longitude
738033,Santa perpètua de mogoda (ES08),Abarán (ES30),20/03/2024 à 09:00,20/03/2024 à 18:00 Rdv 15:00-18:00,41.5328106,2.1823309,0.0,0.0
734964,Montauban (FR82),Albias (FR82),20/03/2024 à 12:00 Rdv 12:00-14:00,20/03/2024 à 16:00,44.0175835,1.3549991,44.0908333,1.4502778
738102,Aldaia (ES46),Alcalá de los gazules (ES11),19/03/2024 à 09:00,19/03/2024 à 19:00 Rdv 17:00-19:00,0.0,0.0,0.0,0.0
736869,Mérignac (FR33),Ambarès-et-lagrave (FR33),20/03/2024 à 13:00 Rdv 13:00-15:00,20/03/2024 à 16:00,44.842168,-0.6469022,44.9259011,-0.4881846
717732,Saint-palais-sur-mer (FR17),Ambarès-et-lagrave (FR33),18/03/2024 à 10:00 Rdv 10:00-12:00,18/03/2024 à 16:00,0.0,0.0,44.9259011,-0.4881846
737957,Bordeaux (FR33),Ambarès-et-lagrave (FR33),21/03/2024 à 14:00 Rdv 14:00-16:00,21/03/2024 à 16:00,44.841225,-0.5800364,44.9259011,-0.4881846
737084,Biarritz (FR64),Ambarès-et-lagrave (FR33),20/03/2024 à 14:00 Rdv 14:00-16:00,21/03/2024 à 12:00,43.4832523,-1.5592776,44.9259011,-0.4881846
738235,Saintes (FR17),Ambarès-et-lagrave (FR33),02/04/2024 à 14:00 Rdv 14:00-16:00,02/04/2024 à 18:00,45.7460663,-0.6300671,44.9259011,-0.4881846
737816,Royan (FR17),Ambon (FR56),18/03/2024 à 08:00 Rdv 8:00-12:00,18/03/2024 à 17:00 Rdv 14:00-17:00,0.0,0.0,0.0,0.0
734065,Mende (FR48),Ambérieu-en-bugey (FR01),11/04/2024 à 10:00 Rdv 10:00-12:00,11/04/2024 à 16:00,44.5180226,3.4991057,45.9584309,5.3595099
737986,Ternay (FR69),Ambérieu-en-bugey (FR01),20/03/2024 à 09:00 Rdv 9:00-11:00,20/03/2024 à 12:00,0.0,0.0,45.9584309,5.3595099
734122,Clermont-ferrand (FR63),Ambérieu-en-bugey (FR01),26/03/2024 à 14:00 Rdv 14:00-16:00,27/03/2024 à 12:00,45.7774551,3.0819427,45.9584309,5.3595099
737874,Mions (FR69),Ambérieu-en-bugey (FR01),20/03/2024 à 14:00 Rdv 14:00-16:00,20/03/2024 à 16:00,0.0,0.0,45.9584309,5.3595099
737587,Valff (FR67),Ambérieu-en-bugey (FR01),25/03/2024 à 15:00 Rdv 15:00-17:00,26/03/2024 à 10:00,0.0,0.0,45.9584309,5.3595099
736862,Clermont-ferrand (FR63),Ambérieu-en-bugey (FR01),26/03/2024 à 14:00,27/03/2024 à 12:00,45.7774551,3.0819427,45.9584309,5.3595099
735453,Montbonnot saint martin (FR38),Ambérieu-en-bugey (FR01),02/04/2024 à 12:00 Rdv 12:00-13:00,02/04/2024 à 15:30,45.2264498,5.80266,45.9584309,5.3595099
737653,Montoir-de-bretagne (FR44),Angers (FR49),20/03/2024 à 08:00,20/03/2024 à 14:00 Rdv 12:00-14:00,47.3285909,-2.1543171,47.4739884,-0.5515588
737648,Limoges (FR87),Angoulême (FR16),19/03/2024 à 08:30,19/03/2024 à 11:30,45.8354243,1.2644847,45.6484505,0.1561947
737981,Charleroi (BE60),Antwerpen (BE21),18/03/2024 à 09:00,20/03/2024 à 15:00,50.4116233,4.444528,51.2211097,4.3997081
737519,La louvière (BE71),Antwerpen (BE21),18/03/2024 à 09:00,20/03/2024 à 15:00,50.4791337,4.161348292428827,51.2211097,4.3997081
737966,Rhode-saint-genèse (BE16),Antwerpen (BE21),20/03/2024 à 09:00,20/03/2024 à 15:00,50.74503,4.3463687,51.2211097,4.3997081
738226,Zaventem (BE19),Antwerpen (BE21),18/03/2024 à 09:00,18/03/2024 à 15:00,50.8806207,4.4730008,51.2211097,4.3997081
737517,Asse (BE17),Antwerpen (BE21),18/03/2024 à 09:00,20/03/2024 à 15:00,50.9094333,4.2015646,51.2211097,4.3997081
737523,Seraing (BE41),Antwerpen (BE21),18/03/2024 à 09:00,20/03/2024 à 15:00,50.6152381,5.5089437,51.2211097,4.3997081
731190,Parçay-meslay (FR37),Arnage (FR72),20/03/2024 à 09:00,20/03/2024 à 12:00 Rdv 10:00-12:00,47.4413885,0.7456752,0.0,0.0
734479,Saint-quentin (FR02),Attin (FR62),19/03/2024 à 09:00,19/03/2024 à 12:00,49.8465253,3.2876843,50.4878746,1.7437837
737111,La chapelle-d\'aurec (FR43),Aubière (FR63),03/04/2024 à 11:00 Rdv 11:00-12:00,03/04/2024 à 15:00,45.3355965,4.2072832,45.7512575,3.1144195
732786,Mont-saint-aignan (FR76),Avrigny (FR60),20/03/2024 à 11:30,20/03/2024 à 16:00,49.4679,1.0813,49.3817833,2.57932
737965,Oliva (ES46),Aznalcóllar (ES41),15/03/2024 à 09:00,18/03/2024 à 16:00,38.9202443,-0.1208981,0.0,0.0
738108,La poveda (ES28),Azuqueca de henares (ES19),18/03/2024 à 09:00 Rdv 9:00-10:00,18/03/2024 à 17:30,0.0,0.0,40.5683808,-3.2627134
737808,La norville (FR91),Bagneaux-sur-loing (FR77),22/03/2024 à 08:30,22/03/2024 à 12:30,48.5856753,2.2583893,0.0,0.0
736189,Arras (FR62),Bailly-romainvilliers (FR77),22/03/2024 à 09:00,22/03/2024 à 11:00,50.290277,2.776273,2.8247398,48.8471425
738117,Bourges (FR18),Ballan-mire (FR37),22/03/2024 à 12:00,22/03/2024 à 16:00 Rdv 14:00-16:00,47.0811658,2.399125,0.0,0.0
738151,Castellbisbal (ES08),Barberà del vallès (ES08),18/03/2024 à 09:00,18/03/2024 à 16:00,41.4765136,1.9832978,0.0,0.0
737857,Saint georges de didonne (FR17),Bassens (FR33),29/03/2024 à 09:00,29/03/2024 à 11:30,0.0,0.0,44.9015003,-0.5163222
738179,Talence (FR33),Bassens (FR33),29/03/2024 à 09:00,29/03/2024 à 11:30,44.8088438,-0.5879629,44.9015003,-0.5163222
737855,Saint georges de didonne (FR17),Bassens (FR33),29/03/2024 à 09:00,29/03/2024 à 11:30,0.0,0.0,44.9015003,-0.5163222
736614,Le chateau d'oleron (FR17),Bassens (FR33),24/04/2024 à 09:00,24/04/2024 à 11:30,45.8866143,-1.1953301,44.9015003,-0.5163222
737078,Tarnos (FR40),Bayonne (FR64),19/03/2024 à 08:00,19/03/2024 à 10:00,43.5405622,-1.4611915,43.4945144,-1.4736657
737015,Le boulou (FR66),Beaulieu (FR34),20/03/2024 à 08:15,20/03/2024 à 11:00,45.4051111,0.5863309,47.7277699,4.7269377
738181,Calanda (ES44),Bellvei (ES43),19/03/2024 à 10:00 Rdv 10:00-12:00,19/03/2024 à 17:00,0.0,0.0,41.2390234,1.5780273
738202,Benicarló (ES12),Bellvei (ES43),20/03/2024 à 10:00 Rdv 10:00-12:00,20/03/2024 à 17:15,0.0,0.0,41.2390234,1.5780273
737791,Lyon (FR69),Besançon (FR25),20/03/2024 à 14:00 Rdv 14:00-15:00,20/03/2024 à 18:00,45.7578137,4.8320114,47.24267101995112,6.009830063015576
737080,Castelnau-destrétefonds (FR31),Biarritz (FR64),20/03/2024 à 09:00,20/03/2024 à 16:00 Rdv 14:00-16:00,0.0,0.0,43.4832523,-1.5592776
736734,Tarnos (FR40),Bidart (FR64),19/03/2024 à 08:00,19/03/2024 à 16:00 Rdv 14:00-16:00,43.5405622,-1.4611915,43.4391702,-1.5898909
737199,Valenton (FR94),Billancelles (FR28),29/03/2024 à 09:00,29/03/2024 à 12:00,48.7443189,2.4699741,48.4865445,1.2154512
736743,Illzach (FR68),Biltzheim (FR68),02/04/2024 à 09:00,02/04/2024 à 11:00 Rdv 9:00-11:00,47.7815313,7.347339,47.9585244,7.3896085
737457,Poitiers (FR86),Blain (FR44),22/03/2024 à 08:30 Rdv 8:30-9:30,22/03/2024 à 16:00 Rdv 14:00-16:00,46.5802596,0.340196,47.4755536,-1.7643647
737955,La norville (FR91),Bordeaux (FR33),21/03/2024 à 08:30,21/03/2024 à 16:00 Rdv 14:00-16:00,48.5856753,2.2583893,44.841225,-0.5800364
738224,Bassens (FR33),Bort-les-orgues (FR19),20/03/2024 à 09:00,20/03/2024 à 14:00,44.9015003,-0.5163222,0.0,0.0
737918,Guyancourt (FR78),Boulogne-billancourt (FR92),18/03/2024 à 08:30 Rdv 8:30-9:30,18/03/2024 à 11:00,48.7709414,2.0706084,0.0,0.0
736276,Rueil-malmaison (FR92),Boulogne-billancourt (FR92),20/03/2024 à 14:00,20/03/2024 à 15:00,48.8791007996,2.17808008194,0.0,0.0
737834,Montauban-de-bretagne (FR35),Boulogne-billancourt (FR92),19/03/2024 à 10:00,19/03/2024 à 16:00 Rdv 14:00-16:00,48.1998838,-2.0462319,0.0,0.0
738233,Bassens (FR33),Bourg (FR33),20/03/2024 à 09:00,20/03/2024 à 12:00 Rdv 10:00-12:00,44.9015003,-0.5163222,0.0,0.0
738207,Saint-léger-des-vignes (FR58),Bourges (FR18),19/03/2024 à 11:00,19/03/2024 à 16:00 Rdv 14:00-16:00,0.0,0.0,47.0811658,2.399125
736468,Tavaux (FR39),Brebières (FR62),18/03/2024 à 14:00 Rdv 14:00-16:00,19/03/2024 à 18:00 Rdv 17:00-18:00,47.0371,5.40338,50.3372093,3.0224298
737563,Orvault (FR44),Brive-la-gaillarde (FR19),19/03/2024 à 17:00 Rdv 17:00-19:00,20/03/2024 à 14:00,-1.6194319725,47.2511912196,45.1584982,1.5332389
737180,La roche-sur-yon (FR85),Bruges (FR33),27/03/2024 à 12:00,27/03/2024 à 16:00,46.6705431,-1.4269698,51.2085526,3.226772
735455,Essarts-en-bocage (FR85),Bruges (FR33),25/03/2024 à 16:30,26/03/2024 à 11:00,46.78605775,-1.2528102863462225,51.2085526,3.226772
736993,Canéjan (FR33),Bruges (FR33),21/03/2024 à 10:00,21/03/2024 à 11:00,44.7626562,-0.6540587,51.2085526,3.226772
736598,Awans (BE43),Bruxelles (BE10),18/03/2024 à 11:00 Rdv 11:00-13:00,18/03/2024 à 15:00,50.6670346,5.4622239,50.8550018,4.3512333761166175
738003,Montoir-de-bretagne (FR44),Bruz (FR35),22/03/2024 à 08:00,22/03/2024 à 13:00,47.3285909,-2.1543171,0.0,0.0
737715,Chartres-de-bretagne (FR35),Bréal-sous-montfort (FR35),28/03/2024 à 08:30,28/03/2024 à 15:00 Rdv 13:00-15:00,48.0432406,-1.7082369,0.0,0.0
738230,Coignières (FR78),Cachan (FR94),19/03/2024 à 09:00,19/03/2024 à 11:00,48.7511787,1.9201632,0.0,0.0
736992,Bassens (FR33),Canéjan (FR33),21/03/2024 à 09:00,21/03/2024 à 10:00,44.9015003,-0.5163222,44.7626562,-0.6540587
738189,Le cellier (FR44),Carquefou (FR44),19/03/2024 à 09:00,19/03/2024 à 09:45,47.3186735,-1.3465357,47.2971979,-1.4921233
736112,Montpellier (FR34),Castelnau-d'estrétefonds (FR31),10/04/2024 à 14:00 Rdv 14:00-16:00,10/04/2024 à 16:00,43.6112422,3.8767337,43.78251,1.3590892
736116,Montpellier (FR34),Castelnau-d'estrétefonds (FR31),10/04/2024 à 10:00 Rdv 10:00-12:00,10/04/2024 à 16:00,43.6112422,3.8767337,43.78251,1.3590892
736120,Montpellier (FR34),Castelnau-d'estrétefonds (FR31),10/04/2024 à 09:00 Rdv 9:00-11:00,10/04/2024 à 16:00,43.6112422,3.8767337,43.78251,1.3590892
734380,Périgueux (FR24),Castelnau-d'estrétefonds (FR31),19/03/2024 à 14:00 Rdv 14:00-16:00,20/03/2024 à 12:00,45.1909365,0.7184407,43.78251,1.3590892
736114,Montpellier (FR34),Castelnau-d'estrétefonds (FR31),10/04/2024 à 13:30 Rdv 13:30-15:30,10/04/2024 à 16:00,43.6112422,3.8767337,43.78251,1.3590892
738219,Limoges (FR87),Castelnau-d'estrétefonds (FR31),20/03/2024 à 11:00 Rdv 11:00-13:00,20/03/2024 à 16:00,45.8354243,1.2644847,43.78251,1.3590892
737467,Mur-de-barrez (FR12),Castelnau-d\'estrétefonds (FR31),26/03/2024 à 14:00 Rdv 14:00-15:00,27/03/2024 à 12:00,44.8416264,2.6635471,43.78251,1.3590892
728790,Caupenne-d\'armagnac (FR32),Castelnau-d\'estrétefonds (FR31),19/03/2024 à 09:00 Rdv 9:00-11:00,19/03/2024 à 15:15,0.0,0.0,43.78251,1.3590892
734961,Tarbes (FR65),Castelnau-d\'estrétefonds (FR31),20/03/2024 à 12:00 Rdv 12:00-14:00,20/03/2024 à 16:00,43.232858,781021.0,43.78251,1.3590892
737771,Toulouse (FR31),Castelnau-d\'estrétefonds (FR31),22/03/2024 à 12:00 Rdv 12:00-14:00,22/03/2024 à 16:00,43.6044622,1.4442469,43.78251,1.3590892
733845,Saint-ail (FR54),Cattenom (FR57),19/03/2024 à 08:15,19/03/2024 à 12:00 Rdv 10:00-12:00,49.1808501,5.9960901,49.4074405,6.244669
736415,Thann (FR68),Cesson (FR77),21/03/2024 à 08:30,21/03/2024 à 15:00,47.8101008,7.1020957,48.5624381,2.6021145
738254,Le cellier (FR44),Cesson-sévigné (FR35),20/03/2024 à 08:30,20/03/2024 à 13:00,47.3186735,-1.3465357,0.0,0.0
738061,Vitrolles (FR13),Cessy (FR01),18/03/2024 à 08:00,19/03/2024 à 16:30,44.4347105,5.9496043,0.0,0.0
738252,Colombier-saugnieu (FR69),Chambéry (FR73),18/03/2024 à 15:30 Rdv 15:30-16:30,18/03/2024 à 17:00,45.7113787,5.1119241,45.5662672,5.9203636
736999,Bassussarry (FR64),Chambœuf (FR42),18/03/2024 à 09:45 Rdv 9:45-11:45,20/03/2024 à 19:00 Rdv 17:00-19:00,43.4464338,-1.5149178,47.2301089,4.9049675
736620,Corbas (FR69),Champlan (FR91),19/03/2024 à 08:00,19/03/2024 à 15:00,45.6662663,4.9015205,48.7073405,2.2758626
738260,Poitiers (FR86),Champniers (FR16),18/03/2024 à 09:30,18/03/2024 à 18:45 Rdv 11:15-18:45,46.5802596,0.340196,45.7145725,0.2050544
736688,Saint-jean-d\'illac (FR33),Champniers (FR16),25/03/2024 à 11:30,25/03/2024 à 16:00,44.8101856,-0.7815257,45.7145725,0.2050544
738050,Lagnieu (FR01),Chaponost (FR69),25/03/2024 à 08:30,25/03/2024 à 13:00 Rdv 11:00-13:00,45.9034952,5.3480192,0.0,0.0
732040,Hasselt (BE35),Charleroi (BE60),25/03/2024 à 08:30,25/03/2024 à 10:30,50.9303735,5.3378043,50.4116233,4.444528
735490,Dijon (FR21),Chevigny-saint-sauveur (FR21),21/03/2024 à 10:30,21/03/2024 à 15:00,47.3215806,5.0414701,47.2977106,5.1382218
734560,Les mureaux (FR78),Chilly-mazarin (FR91),18/03/2024 à 14:00 Rdv 14:00-16:00,18/03/2024 à 17:00,48.9931578,1.909928,48.7026161,2.3123582
736670,Villeneuve-saint-georges (FR94),Chirens (FR38),19/03/2024 à 09:00,19/03/2024 à 16:00,48.7305272,2.44782,45.4138,5.55661
735389,Franconville (FR95),Château-thébaud (FR44),20/03/2024 à 15:00 Rdv 15:00-17:00,20/03/2024 à 18:00,48.5000906,6.4527267,0.0,0.0
734610,Lieusaint (FR77),Château-thébaud (FR44),18/03/2024 à 13:00 Rdv 13:00-15:00,18/03/2024 à 16:00,0.0,0.0,0.0,0.0
736381,Miramas (FR13),Châteauneuf-de-gadagne (FR84),25/03/2024 à 08:30,25/03/2024 à 13:00 Rdv 11:00-13:00,43.582733,5.0025809,43.927603,4.9442687
738271,Hénin-beaumont (FR62),Châtellerault (FR86),18/03/2024 à 09:00,18/03/2024 à 17:30,0.0,0.0,0.0,0.0
735495,Neuvy (FR41),Clamecy (FR58),19/03/2024 à 11:00,19/03/2024 à 17:00 Rdv 15:00-17:00,48.7469304,3.5177618,49.4286111,3.3619444
736861,Castelnau-d'estrétefonds (FR31),Clermont-ferrand (FR63),26/03/2024 à 09:15,26/03/2024 à 16:00 Rdv 14:00-16:00,43.78251,1.3590892,45.7774551,3.0819427
734121,Castelnau-d'estrétefonds (FR31),Clermont-ferrand (FR63),26/03/2024 à 08:30,26/03/2024 à 16:00 Rdv 14:00-16:00,43.78251,1.3590892,45.7774551,3.0819427
737501,Bassens (FR33),Clermont-ferrand (FR63),19/03/2024 à 08:30,19/03/2024 à 15:00 Rdv 13:00-15:00,44.9015003,-0.5163222,45.7774551,3.0819427
737410,La norville (FR91),Colombes (FR92),25/03/2024 à 08:30,25/03/2024 à 12:00 Rdv 10:00-12:00,48.5856753,2.2583893,48.922788,2.2543577
738141,Prades-sur-vernazobre (FR34),Colombier-saugnieu (FR69),20/03/2024 à 08:00 Rdv 8:00-9:00,20/03/2024 à 14:30 Rdv 13:30-14:30,0.0,0.0,45.7113787,5.1119241
738041,Lagnieu (FR01),Corbas (FR69),20/03/2024 à 08:30,20/03/2024 à 12:00 Rdv 10:00-12:00,45.9034952,5.3480192,45.6662663,4.9015205
737822,Berck (FR62),Cormontreuil (FR51),03/04/2024 à 14:00,04/04/2024 à 10:00,0.0,0.0,0.0,0.0
738199,Certines (FR01),Courpière (FR63),19/03/2024 à 10:00,19/03/2024 à 16:00 Rdv 14:00-16:00,0.0,0.0,0.0,0.0
736672,Neuvy (FR41),Cruzy-le-châtel (FR89),21/03/2024 à 10:00,21/03/2024 à 16:00 Rdv 14:00-16:00,48.7469304,3.5177618,47.8554593,4.2115505
738201,Bassens (FR33),Créon (FR33),20/03/2024 à 09:00,20/03/2024 à 12:00 Rdv 10:00-12:00,44.9015003,-0.5163222,0.0,0.0
738147,Valladolid (ES47),Cuenca (ES16),15/03/2024 à 09:00,15/03/2024 à 15:00,41.6521328,-4.728562,0.0,0.0
738094,Tarnos (FR40),Dax (FR40),20/03/2024 à 08:00,20/03/2024 à 11:00,43.5405622,-1.4611915,0.0,0.0
737257,Etterbeek (BE10),Diegem (BE18),18/03/2024 à 10:15,18/03/2024 à 12:15,50.8361447,4.3861737,50.8945555,4.4365042
735489,Chevigny-saint-sauveur (FR21),Dijon (FR21),21/03/2024 à 09:00,21/03/2024 à 10:30,47.2977106,5.1382218,47.3215806,5.0414701
735728,Marckolsheim (FR67),Dijon (FR21),19/03/2024 à 08:30,19/03/2024 à 16:00 Rdv 14:00-16:00,48.165441,7.5444161,47.3215806,5.0414701
735454,Bassens (FR33),Essarts-en-bocage (FR85),25/03/2024 à 13:00,25/03/2024 à 16:30,44.9015003,-0.5163222,46.78605775,-1.2528102863462225
737194,Saint-ail (FR54),Fessenheim (FR68),21/03/2024 à 08:15,21/03/2024 à 12:00,49.1808501,5.9960901,47.915436,7.5360223
734200,Rouen (FR76),Fleury-mérogis (FR91),20/03/2024 à 11:00 Rdv 11:00-13:00,20/03/2024 à 16:00,49.4404591,1.0939658,48.629965,2.3609313
734131,Rennes (FR35),Fleury-mérogis (FR91),09/04/2024 à 09:00 Rdv 9:00-11:00,09/04/2024 à 16:15,48.1113387,-1.6800198,48.629965,2.3609313
737803,Olivet (FR45),Fleury-mérogis (FR91),03/04/2024 à 15:00,04/04/2024 à 14:00,0.0,0.0,48.629965,2.3609313
734213,Rennes (FR35),Fleury-mérogis (FR91),15/04/2024 à 14:00 Rdv 14:00-16:00,16/04/2024 à 11:00,48.1113387,-1.6800198,48.629965,2.3609313
736393,Reims (FR51),Fleury-mérogis (FR91),20/03/2024 à 11:00 Rdv 11:00-13:00,20/03/2024 à 16:00,49.2577886,4.031926,48.629965,2.3609313
734356,Épinal (FR88),Fleury-mérogis (FR91),27/03/2024 à 10:00 Rdv 10:00-12:00,27/03/2024 à 16:45,48.1747684,6.4503643,48.629965,2.3609313
737705,Rueil-malmaison (FR92),Flins-sur-seine (FR78),25/03/2024 à 12:00,25/03/2024 à 16:30,48.8791007996,2.17808008194,48.9623407,1.8684146
737659,Gentilly (FR94),Flins-sur-seine (FR78),18/03/2024 à 14:00 Rdv 14:00-16:00,19/03/2024 à 09:00,48.8153656,2.3483549,48.9623407,1.8684146
737701,Gidy (FR45),Flins-sur-seine (FR78),29/03/2024 à 12:00,29/03/2024 à 16:30,47.9899429,1.8368508,48.9623407,1.8684146
735402,Ungersheim (FR68),Forbach (FR57),20/03/2024 à 09:00 Rdv 9:00-11:00,20/03/2024 à 16:00,47.877868,7.304028,49.1862822,6.8958562
737848,Lantefontaine (FR54),Forbach (FR57),19/03/2024 à 09:25,19/03/2024 à 16:26,49.2503,5.9092,49.1862822,6.8958562
737854,Lantefontaine (FR54),Forbach (FR57),19/03/2024 à 09:30,19/03/2024 à 15:30,49.2503,5.9092,49.1862822,6.8958562
737953,Haguenau (FR67),Forbach (FR57),19/03/2024 à 09:11,19/03/2024 à 16:11,48.8172236,7.7885978,49.1862822,6.8958562
736606,Woippy (FR57),Forbach (FR57),19/03/2024 à 14:00 Rdv 14:00-16:00,20/03/2024 à 12:00,49.1515848,6.1519224,49.1862822,6.8958562
737990,Oberhausbergen (FR67),Forbach (FR57),19/03/2024 à 10:00 Rdv 10:00-12:00,19/03/2024 à 13:21,0.0,0.0,49.1862822,6.8958562
737568,Chatenois (FR67),Forbach (FR57),27/03/2024 à 10:01,27/03/2024 à 15:02,48.272548,7.4013652,49.1862822,6.8958562
737188,Seppois le bas (FR68),Forbach (FR57),19/03/2024 à 10:00 Rdv 10:00-12:00,19/03/2024 à 15:00,0.0,0.0,49.1862822,6.8958562
737841,Lantefontaine (FR54),Forbach (FR57),19/03/2024 à 09:01,19/03/2024 à 16:21,49.2503,5.9092,49.1862822,6.8958562
737104,Rivery (FR80),Frontenex (FR73),03/04/2024 à 16:00,04/04/2024 à 14:00,49.9005828,2.3216925,45.6344,6.31187
738236,Miramas (FR13),Fréjus (FR83),21/03/2024 à 08:00 Rdv 8:00-10:00,21/03/2024 à 13:00 Rdv 11:00-13:00,43.582733,5.0025809,0.0,0.0
735598,Geel (BE24),Geel (BE24),15/03/2024 à 13:00 Rdv 13:00-14:00,15/03/2024 à 15:15,51.1610826,4.9903187,51.1610826,4.9903187
735597,Geel (BE24),Geel (BE24),15/03/2024 à 11:00,15/03/2024 à 14:00 Rdv 13:00-14:00,51.1610826,4.9903187,51.1610826,4.9903187
736972,Watermaal-bosvoorde (BE11),Genk (BE36),21/03/2024 à 11:00,21/03/2024 à 14:30 Rdv 12:30-14:30,50.7981063,4.4176441,50.9654864,5.5001456
737954,Brugge (BE82),Genk (BE36),22/03/2024 à 13:45 Rdv 13:45-14:45,22/03/2024 à 16:45,0.0,0.0,50.9654864,5.5001456
737658,Flins-sur-seine (FR78),Gentilly (FR94),18/03/2024 à 08:00,18/03/2024 à 16:00 Rdv 14:00-16:00,48.9623407,1.8684146,48.8153656,2.3483549
737700,Flins-sur-seine (FR78),Gidy (FR45),29/03/2024 à 08:00,29/03/2024 à 12:00,48.9623407,1.8684146,47.9899429,1.8368508
737946,Rivery (FR80),Gonfreville-l\'orcher (FR76),19/03/2024 à 10:30,19/03/2024 à 14:00,49.9005828,2.3216925,0.0,0.0
737974,Massy (FR91),Guyancourt (FR78),19/03/2024 à 11:15,19/03/2024 à 12:15 Rdv 11:15-12:15,49.6902106,1.399492,48.7709414,2.0706084
737919,Boulogne-billancourt (FR92),Guyancourt (FR78),18/03/2024 à 11:00,18/03/2024 à 13:30,0.0,0.0,48.7709414,2.0706084
737368,Paray-vieille-poste (FR91),Guyancourt (FR78),18/03/2024 à 09:30 Rdv 9:30-10:30,18/03/2024 à 12:45 Rdv 11:45-12:45,48.7126093,2.3637838,48.7709414,2.0706084
736929,Wavrin (FR59),Halluin (FR59),25/03/2024 à 08:30,25/03/2024 à 13:00 Rdv 11:00-13:00,50.570559,2.932545,50.7826693,3.1249234
736970,Marckolsheim (FR67),Heillecourt (FR54),20/03/2024 à 08:30,20/03/2024 à 15:00 Rdv 13:00-15:00,48.165441,7.5444161,48.6530512,6.1947541
737259,Wavrin (FR59),Hellemmes-lille (FR59),21/03/2024 à 08:30,21/03/2024 à 12:00 Rdv 10:00-12:00,50.570559,2.932545,0.0,0.0
735064,Avrigny (FR60),Hesmond (FR62),21/03/2024 à 08:30,21/03/2024 à 15:00 Rdv 13:00-15:00,49.3817833,2.57932,0.0,0.0
736430,Saint-ail (FR54),Illkirch-graffenstaden (FR67),21/03/2024 à 08:15,21/03/2024 à 16:00 Rdv 14:00-16:00,49.1808501,5.9960901,48.5298611,7.7116218
723396,Aunay /s auneau (FR28),Illkirch-graffenstaden (FR67),18/03/2024 à 10:00 Rdv 10:00-15:00,19/03/2024 à 11:00 Rdv 9:00-11:00,48.4670517,1.837231,48.5298611,7.7116218
736960,Saint-ail (FR54),Illzach (FR68),19/03/2024 à 08:15,19/03/2024 à 12:00,49.1808501,5.9960901,47.7815313,7.347339
736544,Saint-herblain (FR44),Isneauville (FR76),20/03/2024 à 09:00 Rdv 9:00-10:00,20/03/2024 à 15:00 Rdv 14:00-15:00,47.2238156,-1.6529932,49.4988394,1.1416384
737168,Rivery (FR80),Kingersheim (FR68),04/04/2024 à 16:00,05/04/2024 à 14:30,49.9005828,2.3216925,47.7923002,7.3386856
737632,Brugge (BE83),Kontich (BE25),19/03/2024 à 07:00,19/03/2024 à 09:00,51.2085526,3.226772,51.1353297,4.4454784
735767,Asse (BE17),Kruibeke (BE91),25/03/2024 à 10:00,25/03/2024 à 15:00,50.9094333,4.2015646,51.17625475,4.298036873275151
736062,Dechy (FR59),La chapelle-d\'armentières (FR59),22/03/2024 à 08:30,22/03/2024 à 12:00 Rdv 10:00-12:00,50.354883,3.1299151,50.6727867,2.8965721
737109,Aubière (FR63),La chapelle-d\'aurec (FR43),03/04/2024 à 08:30,03/04/2024 à 12:00 Rdv 11:00-12:00,45.7512575,3.1144195,45.3355965,4.2072832
738242,Marseille (FR13),La roche-de-glun (FR26),20/03/2024 à 10:00 Rdv 10:00-12:00,20/03/2024 à 16:00,43.2961743,5.3699525,45.0133527,4.8443331
736382,Châteauneuf-de-gadagne (FR84),La roche-de-glun (FR26),25/03/2024 à 11:00 Rdv 11:00-13:00,25/03/2024 à 16:00,43.927603,4.9442687,45.0133527,4.8443331
737179,Bassens (FR33),La roche-sur-yon (FR85),27/03/2024 à 09:00,27/03/2024 à 12:00,44.9015003,-0.5163222,46.6705431,-1.4269698
738243,Bourges (FR18),La souterraine (FR23),20/03/2024 à 08:00,20/03/2024 à 16:00,47.0811658,2.399125,0.0,0.0
737569,Avrigny (FR60),La vieux-rue (FR76),19/03/2024 à 09:00,19/03/2024 à 12:00 Rdv 10:00-12:00,49.3817833,2.57932,49.4987027,1.2468276
737157,Tarnos (FR40),Lacq (FR64),21/03/2024 à 08:00,21/03/2024 à 11:00,43.5405622,-1.4611915,43.42474795,-0.6137677299515235
738020,La norville (FR91),Lamorlaye (FR60),20/03/2024 à 08:30,20/03/2024 à 14:00 Rdv 12:00-14:00,48.5856753,2.2583893,0.0,0.0
738156,Kingersheim (FR68),Landres (FR54),22/03/2024 à 08:00 Rdv 8:00-9:00,22/03/2024 à 12:45 Rdv 11:45-12:45,47.7923002,7.3386856,0.0,0.0
737719,Aubagne (FR13),Lançon-provence (FR13),21/03/2024 à 08:30,21/03/2024 à 10:30,43.2924385,5.5703031,43.5913062,5.1258628
737731,Aubagne (FR13),Lançon-provence (FR13),21/03/2024 à 09:00,21/03/2024 à 11:00,43.2924385,5.5703031,43.5913062,5.1258628
736936,Montpellier (FR34),Lattes (FR34),15/04/2024 à 07:30 Rdv 7:30-8:30,15/04/2024 à 09:00,43.6112422,3.8767337,43.5653993,3.9017114
737656,Villers-lès-nancy (FR54),Laxou (FR54),02/04/2024 à 08:15,02/04/2024 à 09:00,0.0,0.0,0.0,0.0
737016,Beaulieu (FR34),Le boulou (FR66),20/03/2024 à 11:00,20/03/2024 à 16:00,47.7277699,4.7269377,45.4051111,0.5863309
737716,Bréal-sous-montfort (FR35),Le cellier (FR44),28/03/2024 à 13:00 Rdv 13:00-15:00,28/03/2024 à 16:30,0.0,0.0,47.3186735,-1.3465357
737364,Rennes (FR35),Le cellier (FR44),20/03/2024 à 09:00 Rdv 9:00-11:00,20/03/2024 à 11:00,48.1113387,-1.6800198,47.3186735,-1.3465357
738190,Carquefou (FR44),Le cellier (FR44),19/03/2024 à 09:45,19/03/2024 à 11:30,47.2971979,-1.4921233,47.3186735,-1.3465357
730524,La chapelle-des-fougeretz (FR35),Les andelys (FR27),18/03/2024 à 09:00,18/03/2024 à 13:30,48.178066,-1.7341163,49.2469193,1.4215534
733797,Avrigny (FR60),Les mureaux (FR78),18/03/2024 à 09:00,18/03/2024 à 16:00 Rdv 14:00-16:00,49.3817833,2.57932,48.9931578,1.909928
736446,Locquignol (FR59),Lieu-saint-amand (FR59),25/03/2024 à 12:00 Rdv 12:00-14:00,25/03/2024 à 16:00,0.0,0.0,50.2729141,3.3461187
736581,Limoges (FR87),Limoges (FR87),22/03/2024 à 12:00 Rdv 12:00-14:00,22/03/2024 à 16:00,45.8354243,1.2644847,45.8354243,1.2644847
736580,Bassens (FR33),Limoges (FR87),22/03/2024 à 08:30,22/03/2024 à 14:00 Rdv 12:00-14:00,44.9015003,-0.5163222,45.8354243,1.2644847
737502,Clermont-ferrand (FR63),Limoges (FR87),19/03/2024 à 13:00 Rdv 13:00-15:00,20/03/2024 à 12:00,45.7774551,3.0819427,45.8354243,1.2644847
738218,Castelnau-d'estrétefonds (FR31),Limoges (FR87),20/03/2024 à 08:30,20/03/2024 à 13:00 Rdv 11:00-13:00,43.78251,1.3590892,45.8354243,1.2644847
738200,Montauban-de-bretagne (FR35),Locmine (FR56),02/04/2024 à 12:57,02/04/2024 à 16:00 Rdv 14:00-16:00,48.1998838,-2.0462319,0.0,0.0
736445,Wavrin (FR59),Locquignol (FR59),25/03/2024 à 08:30,25/03/2024 à 14:00 Rdv 12:00-14:00,50.570559,2.932545,0.0,0.0
732148,Montoir-de-bretagne (FR44),Loudéac (FR22),21/03/2024 à 08:00,21/03/2024 à 11:15 Rdv 10:15-11:15,47.3285909,-2.1543171,48.1762534,-2.7535644
737881,Nantes (FR44),Luisant (FR28),20/03/2024 à 12:30 Rdv 12:30-14:30,20/03/2024 à 20:00 Rdv 18:00-20:00,47.2186371,-1.5541362,0.0,0.0
737597,Torre del mar (ES29),"Luisiana, la (ES41)",19/03/2024 à 10:00 Rdv 10:00-12:00,19/03/2024 à 17:15,36.7413845,-4.0946126,303891.0,-9383689.0
737530,Chipiona (ES11),"Luisiana, la (ES41)",18/03/2024 à 10:00 Rdv 10:00-12:00,18/03/2024 à 17:15,36.7355451,-6.4348221,303891.0,-9383689.0
736295,Orvault (FR44),Luçon (FR85),21/03/2024 à 09:30 Rdv 9:30-10:30,21/03/2024 à 14:00,-1.6194319725,47.2511912196,15.5919971,120.73967457219264
737790,Besançon (FR25),Lyon (FR69),20/03/2024 à 08:30,20/03/2024 à 15:00 Rdv 14:00-15:00,47.24267101995112,6.009830063015576,45.7578137,4.8320114
737880,Arcy-sur-cure (FR89),Lyon (FR69),18/03/2024 à 08:30,18/03/2024 à 14:00,0.0,0.0,45.7578137,4.8320114
737148,Lagnieu (FR01),Lyon (FR69),19/03/2024 à 10:30,19/03/2024 à 15:30,45.9034952,5.3480192,45.7578137,4.8320114
737139,Boortmeerbeek (BE31),Machelen (BE18),18/03/2024 à 08:00,18/03/2024 à 15:00 Rdv 8:45-15:00,50.978285850000006,4.575800524999997,50.903150350789616,4.449248232844452
738259,Alcobendas (ES28),Madrid (ES28),18/03/2024 à 08:30 Rdv 8:30-9:30,18/03/2024 à 10:15,40.5400082,-3.6358494,40.4167047,-3.7035825
738264,Nanteuil-le-haudouin (FR60),Magenta (FR51),20/03/2024 à 08:30,20/03/2024 à 13:00 Rdv 11:00-13:00,49.141185,2.8089282,0.0,0.0
738180,Lescure-d\'albigeois (FR81),Manosque (FR04),18/03/2024 à 09:00 Rdv 9:00-11:00,23/03/2024 à 19:00 Rdv 17:00-19:00,0.0,0.0,43.8338026,5.7826657
738158,Ambérieu-en-bugey (FR01),Marcigny sous thil (FR21),21/03/2024 à 10:00,21/03/2024 à 16:00 Rdv 14:00-16:00,45.9584309,5.3595099,0.0,0.0
737717,Magny-en-vexin (FR95),Marguerittes (FR30),19/03/2024 à 08:00,19/03/2024 à 14:00 Rdv 12:00-14:00,49.1554403,1.7864359,43.8629,4.45426
735595,La farlede (FR83),Marseille (FR13),28/03/2024 à 08:30,28/03/2024 à 10:00,43.1597,6.04317,43.2961743,5.3699525
737552,Guyancourt (FR78),Marseille (FR13),01/04/2024 à 09:30 Rdv 9:30-10:30,02/04/2024 à 11:00,48.7709414,2.0706084,43.2961743,5.3699525
738241,Miramas (FR13),Marseille (FR13),20/03/2024 à 08:30,20/03/2024 à 12:00 Rdv 10:00-12:00,43.582733,5.0025809,43.2961743,5.3699525
736745,Bougneau (FR17),Martignas sur jalle (FR33),20/03/2024 à 09:20,20/03/2024 à 16:20,45.5972347,-0.5144002,44.8405364,-0.7761489
736520,Bassens (FR33),Martillac (FR33),20/03/2024 à 08:30,20/03/2024 à 12:00 Rdv 10:00-12:00,44.9015003,-0.5163222,44.7141704,-0.5422302
736455,Bassens (FR33),Martillac (FR33),20/03/2024 à 08:30,20/03/2024 à 12:30 Rdv 10:30-12:30,44.9015003,-0.5163222,44.7141704,-0.5422302
737973,Guyancourt (FR78),Massy (FR91),19/03/2024 à 07:30 Rdv 7:30-8:30,19/03/2024 à 09:00,48.7709414,2.0706084,49.6902106,1.399492
735192,Saint-ail (FR54),Maxéville (FR54),22/03/2024 à 08:15,22/03/2024 à 12:00,49.1808501,5.9960901,48.7119046,6.1641314
734064,Miramas (FR13),Mende (FR48),11/04/2024 à 08:30,11/04/2024 à 12:00 Rdv 10:00-12:00,43.582733,5.0025809,44.5180226,3.4991057
736331,Miramas (FR13),Merignac (FR33),18/03/2024 à 09:30,18/03/2024 à 17:00 Rdv 15:00-17:00,43.582733,5.0025809,0.0,0.0
738169,Prix-lès-mézières (FR08),Metz (FR57),19/03/2024 à 16:00 Rdv 16:00-18:30,20/03/2024 à 12:00 Rdv 10:30-12:00,0.0,0.0,49.1196964,6.1763552
736362,Salon de provence (FR13),Meyreuil (FR13),08/04/2024 à 09:00,08/04/2024 à 15:00,43.6405237,5.0980225,43.4867359,5.4952155
737817,Mâcon (FR71),Meyzieu (FR69),22/03/2024 à 08:30,22/03/2024 à 10:00,46.3036683,4.8322266,45.7764637,5.0044767
737864,Montauban-de-bretagne (FR35),Mions (FR69),19/03/2024 à 09:10,20/03/2024 à 16:00 Rdv 14:00-16:00,48.1998838,-2.0462319,0.0,0.0
737873,Saint-maximin-la-sainte-baume (FR83),Miramas (FR13),20/03/2024 à 12:00 Rdv 12:00-14:00,20/03/2024 à 16:30 Rdv 14:30-16:30,43.4522053,5.862294,43.582733,5.0025809
738237,Fréjus (FR83),Miramas (FR13),21/03/2024 à 11:00 Rdv 11:00-13:00,21/03/2024 à 16:00 Rdv 14:00-16:00,0.0,0.0,43.582733,5.0025809
738021,Lamorlaye (FR60),Mitry-mory (FR77),20/03/2024 à 12:00 Rdv 12:00-14:00,20/03/2024 à 16:00,0.0,0.0,48.9839674,2.6183971
737411,Colombes (FR92),Mitry-mory (FR77),25/03/2024 à 10:00 Rdv 10:00-12:00,25/03/2024 à 16:00,48.922788,2.2543577,48.9839674,2.6183971
737809,Bagneaux-sur-loing (FR77),Mitry-mory (FR77),22/03/2024 à 12:30,22/03/2024 à 16:30,0.0,0.0,48.9839674,2.6183971
737823,Cormontreuil (FR51),Mitry-mory (FR77),04/04/2024 à 10:00,04/04/2024 à 15:00,0.0,0.0,48.9839674,2.6183971
736621,Champlan (FR91),Mitry-mory (FR77),19/03/2024 à 15:00,20/03/2024 à 15:00,48.7073405,2.2758626,48.9839674,2.6183971
737559,Paris (FR75),Mitry-mory (FR77),18/03/2024 à 11:30,19/03/2024 à 11:30,48.8534951,2.3483915,48.9839674,2.6183971
731389,Paris (FR75),Mitry-mory (FR77),21/03/2024 à 14:00 Rdv 14:00-16:00,22/03/2024 à 12:00,48.8534951,2.3483915,48.9839674,2.6183971
723397,Illkirch-graffenstaden (FR67),Molsheim (FR67),19/03/2024 à 09:00 Rdv 9:00-11:00,19/03/2024 à 16:00,48.5298611,7.7116218,48.5419351,7.4924679
737169,Kingersheim (FR68),Molsheim (FR67),05/04/2024 à 14:30,05/04/2024 à 16:15,47.7923002,7.3386856,48.5419351,7.4924679
738002,La riche (FR37),Mont-près-chambord (FR41),22/03/2024 à 08:30,22/03/2024 à 12:00 Rdv 10:00-12:00,47.3881295,0.6572824,0.0,0.0
732785,Avrigny (FR60),Mont-saint-aignan (FR76),20/03/2024 à 09:00,20/03/2024 à 11:30,49.3817833,2.57932,49.4679,1.0813
737385,Rueil-malmaison (FR92),Mont-saint-aignan (FR76),20/03/2024 à 11:00,20/03/2024 à 15:30 Rdv 13:30-15:30,48.8791007996,2.17808008194,49.4679,1.0813
737264,Bourges (FR18),Montaigu vendee (FR85),29/03/2024 à 09:00,29/03/2024 à 16:00 Rdv 14:00-16:00,47.0811658,2.399125,0.0,0.0
738217,Castelnau-destrétefonds (FR31),Montaigut-sur-save (FR31),18/03/2024 à 09:00,18/03/2024 à 11:00 Rdv 9:00-11:00,0.0,0.0,0.0,0.0
737097,Tarnos (FR40),Montardon (FR64),19/03/2024 à 08:00,19/03/2024 à 10:00,43.5405622,-1.4611915,43.3682751,-0.3502684
737087,Tarnos (FR40),Montardon (FR64),19/03/2024 à 08:00,19/03/2024 à 10:00,43.5405622,-1.4611915,43.3682751,-0.3502684
734963,Bassens (FR33),Montauban (FR82),20/03/2024 à 08:30,20/03/2024 à 14:00 Rdv 12:00-14:00,44.9015003,-0.5163222,44.0175835,1.3549991
737939,Taverny (FR95),Montauban-de-bretagne (FR35),19/03/2024 à 10:00 Rdv 10:00-12:00,19/03/2024 à 16:00,49.0265888,2.2234971,48.1998838,-2.0462319
738155,Paris (FR75),Montauban-de-bretagne (FR35),19/03/2024 à 09:00 Rdv 9:00-11:00,19/03/2024 à 16:00,48.8534951,2.3483915,48.1998838,-2.0462319
737825,Noyal-sur-vilaine (FR35),Montauban-de-bretagne (FR35),22/03/2024 à 15:00 Rdv 15:00-17:00,22/03/2024 à 18:00,0.0,0.0,48.1998838,-2.0462319
738149,Lindry (FR89),Montauban-de-bretagne (FR35),22/03/2024 à 10:00 Rdv 10:00-12:00,22/03/2024 à 18:00,0.0,0.0,48.1998838,-2.0462319
737216,Bosc-bordel (FR76),Montauban-de-bretagne (FR35),15/03/2024 à 09:00 Rdv 9:00-11:00,15/03/2024 à 16:00,49.5926269,1.4077667,48.1998838,-2.0462319
737777,Servon (FR77),Montauban-de-bretagne (FR35),20/03/2024 à 14:00 Rdv 14:00-16:00,21/03/2024 à 11:00,0.0,0.0,48.1998838,-2.0462319
737971,Thouare-sur-loire (FR44),Montauban-de-bretagne (FR35),20/03/2024 à 10:00 Rdv 10:00-12:00,20/03/2024 à 14:00,0.0,0.0,48.1998838,-2.0462319
735450,Ambérieu-en-bugey (FR01),Montbonnot saint martin (FR38),02/04/2024 à 09:00,02/04/2024 à 13:00 Rdv 12:00-13:00,45.9584309,5.3595099,45.2264498,5.80266
738031,Seyssins (FR38),Montbonnot-saint-martin (FR38)      2,20/03/2024 à 14:00 Rdv 14:00-15:00,20/03/2024 à 16:00 Rdv 15:00-16:00,45.1593057,5.6878134,0.0,0.0
737481,Poitiers (FR86),Montlouis-sur-loire (FR37),20/03/2024 à 08:30 Rdv 8:30-9:30,20/03/2024 à 13:00 Rdv 11:00-13:00,46.5802596,0.340196,47.3881023,0.8269289
737661,Nantes (FR44),Montoir-de-bretagne (FR44),22/03/2024 à 11:30,22/03/2024 à 15:00,47.2186371,-1.5541362,47.3285909,-2.1543171
735631,Saint-laurent-sur-sèvre (FR85),Montoir-de-bretagne (FR44),25/03/2024 à 11:30,25/03/2024 à 15:00,46.9597454,-0.8888005,47.3285909,-2.1543171
736119,Miramas (FR13),Montpellier (FR34),10/04/2024 à 08:30,10/04/2024 à 11:00 Rdv 9:00-11:00,43.582733,5.0025809,43.6112422,3.8767337
736937,Lattes (FR34),Montpellier (FR34),15/04/2024 à 15:30 Rdv 15:30-16:30,15/04/2024 à 17:00,43.5653993,3.9017114,43.6112422,3.8767337
736111,Miramas (FR13),Montpellier (FR34),10/04/2024 à 08:30,10/04/2024 à 16:00 Rdv 14:00-16:00,43.582733,5.0025809,43.6112422,3.8767337
736115,Miramas (FR13),Montpellier (FR34),10/04/2024 à 08:30,10/04/2024 à 12:00 Rdv 10:00-12:00,43.582733,5.0025809,43.6112422,3.8767337
736113,Miramas (FR13),Montpellier (FR34),10/04/2024 à 08:30,10/04/2024 à 15:30 Rdv 13:30-15:30,43.582733,5.0025809,43.6112422,3.8767337
738153,Donzère (FR26),Montélimar (FR26),25/03/2024 à 08:00,25/03/2024 à 12:00,44.4442014,4.7073439,44.5579391,4.750318
737883,Donzère (FR26),Montélimar (FR26),14/03/2024 à 12:15,18/03/2024 à 14:15,44.4442014,4.7073439,44.5579391,4.750318
736148,Saint-ail (FR54),Mulhouse (FR68),25/03/2024 à 08:15,25/03/2024 à 12:00,49.1808501,5.9960901,47.7467233,7.3389937
737466,Toulouse (FR31),Mur-de-barrez (FR12),25/03/2024 à 15:00,26/03/2024 à 15:00 Rdv 14:00-15:00,43.6044622,1.4442469,44.8416264,2.6635471
737818,Meyzieu (FR69),Mâcon (FR71),22/03/2024 à 10:00,22/03/2024 à 16:00,45.7764637,5.0044767,46.3036683,4.8322266
736868,Bassens (FR33),Mérignac (FR33),20/03/2024 à 08:30,20/03/2024 à 15:00 Rdv 13:00-15:00,44.9015003,-0.5163222,44.842168,-0.6469022
735932,Le bouscat (FR33),Mérignac (FR33),26/03/2024 à 09:00,26/03/2024 à 12:00 Rdv 10:00-12:00,44.8661755,-0.5992399,44.842168,-0.6469022
738205,Boulogne-billancourt (FR92),Nanterre (FR92),19/03/2024 à 14:00,19/03/2024 à 17:00,0.0,0.0,48.8924273,2.2071267
737660,Montoir-de-bretagne (FR44),Nantes (FR44),22/03/2024 à 08:00,22/03/2024 à 11:30,47.3285909,-2.1543171,47.2186371,-1.5541362
737879,Luisant (FR28),Nantes (FR44),20/03/2024 à 09:15 Rdv 9:15-10:15,20/03/2024 à 14:30 Rdv 12:30-14:30,0.0,0.0,47.2186371,-1.5541362
737585,Château-thébaud (FR44),Nantes (FR44),26/03/2024 à 09:00,26/03/2024 à 11:00 Rdv 9:00-11:00,0.0,0.0,47.2186371,-1.5541362
737934,Bassens (FR33),Neuvic (FR24),20/03/2024 à 09:00,20/03/2024 à 12:00 Rdv 10:30-12:00,44.9015003,-0.5163222,0.0,0.0
737769,Guyancourt (FR78),Neuville-saint-amand (FR02),18/03/2024 à 08:30 Rdv 8:30-9:30,18/03/2024 à 13:30,48.7709414,2.0706084,0.0,0.0
738058,Villefranche-sur-saône (FR69),Neyron (FR01),21/03/2024 à 08:45,21/03/2024 à 11:00 Rdv 10:00-11:00,0.0,0.0,0.0,0.0
732884,St priest (FR69),Niederstinzel (FR57),27/03/2024 à 09:00,27/03/2024 à 16:00 Rdv 14:00-16:00,45.699911230631024,4.940050948355273,0.0,0.0
737924,Savenay (FR44),Niort (FR79),20/03/2024 à 13:00 Rdv 13:00-14:00,20/03/2024 à 17:00 Rdv 16:00-17:00,0.0,0.0,46.3239233,-0.4646064
736450,Forbach (FR57),Oeting (FR57),19/03/2024 à 09:53,19/03/2024 à 12:00 Rdv 10:00-12:00,49.1862822,6.8958562,49.1745826,6.9161261
737802,Berck (FR62),Olivet (FR45),03/04/2024 à 09:30,03/04/2024 à 15:00,0.0,0.0,0.0,0.0
737564,Brive-la-gaillarde (FR19),Orvault (FR44),20/03/2024 à 14:00,22/03/2024 à 14:00,45.1584982,1.5332389,-1.6194319725,47.2511912196
737367,Chilly-mazarin (FR91),Paray-vieille-poste (FR91),18/03/2024 à 08:30 Rdv 8:30-9:30,18/03/2024 à 10:30 Rdv 9:30-10:30,48.7026161,2.3123582,48.7126093,2.3637838
729554,Ronchin (FR59),Parcay meslay (FR37),22/03/2024 à 13:00 Rdv 13:00-14:00,22/03/2024 à 17:30,50.6056749,3.0778827,47.4413885,0.7456752
733699,Illiers-combray (FR28),Parcay meslay (FR37),15/03/2024 à 09:00 Rdv 9:00-11:00,15/03/2024 à 16:00,0.0,0.0,47.4413885,0.7456752
737762,Saint-cyr-en-val (FR45),Parcay-meslay (FR37),19/03/2024 à 10:00,19/03/2024 à 15:00,0.0,0.0,47.4413885,0.7456752
731388,Corbas (FR69),Paris (FR75),21/03/2024 à 08:30,21/03/2024 à 16:00 Rdv 14:00-16:00,45.6662663,4.9015205,48.8534951,2.3483915
737558,La norville (FR91),Paris (FR75),18/03/2024 à 10:15,18/03/2024 à 11:30,48.5856753,2.2583893,48.8534951,2.3483915
736397,Bassens (FR33),Perpignan (FR66),21/03/2024 à 08:30,21/03/2024 à 16:00 Rdv 14:00-16:00,44.9015003,-0.5163222,42.6985304,2.8953121
738121,Forbach (FR57),Phalsbourg (FR57),19/03/2024 à 09:00,19/03/2024 à 12:00 Rdv 10:00-12:00,49.1862822,6.8958562,0.0,0.0
732714,Montauban-de-bretagne (FR35),Pleudihen-sur-rance (FR22),15/04/2024 à 09:00,15/04/2024 à 11:00 Rdv 9:00-11:00,48.1998838,-2.0462319,48.5102781,-1.9510009
737482,Montlouis-sur-loire (FR37),Poitiers (FR86),20/03/2024 à 11:00 Rdv 11:00-13:00,20/03/2024 à 17:00,47.3881023,0.8269289,46.5802596,0.340196
737458,Blain (FR44),Poitiers (FR86),22/03/2024 à 14:00 Rdv 14:00-16:00,01/04/2024 à 17:00,47.4755536,-1.7643647,46.5802596,0.340196
737550,Tours (FR37),Poitiers (FR86),20/03/2024 à 13:30 Rdv 13:30-14:30,20/03/2024 à 17:00,0.0,0.0,46.5802596,0.340196
738140,Guyancourt (FR78),Prades-sur-vernazobre (FR34),19/03/2024 à 07:30,20/03/2024 à 09:00 Rdv 8:00-9:00,48.7709414,2.0706084,0.0,0.0
736048,Nice (FR06),Puyloubier (FR13),25/03/2024 à 08:00 Rdv 8:00-9:00,25/03/2024 à 14:00 Rdv 12:00-14:00,43.7009358,7.2683912,43.5259569,5.6746188
734379,Villevêque (FR49),Périgueux (FR24),19/03/2024 à 08:30,19/03/2024 à 16:00 Rdv 14:00-16:00,47.5601026,-0.4230772,45.1909365,0.7184407
738250,Saint-cyr-sur-loire (FR37),Quessoy (FR22),15/03/2024 à 17:00 Rdv 17:00-18:00,16/03/2024 à 12:00 Rdv 10:30-12:00,47.4052448,0.6658199,0.0,0.0
736217,Saint-pal-de-mons (FR43),Quincieux (FR69),28/03/2024 à 09:00 Rdv 9:00-11:00,28/03/2024 à 14:00,0.0,0.0,45.90900965105747,4.762067991264464
736494,Neulise (FR42),Quincieux (FR69),20/03/2024 à 09:00 Rdv 9:00-11:00,20/03/2024 à 12:00,45.9025,4.18068,45.90900965105747,4.762067991264464
736222,Saint-pal-de-mons (FR43),Quincieux (FR69),28/03/2024 à 09:00 Rdv 9:00-11:00,28/03/2024 à 14:00,0.0,0.0,45.90900965105747,4.762067991264464
736392,Avrigny (FR60),Reims (FR51),20/03/2024 à 08:30,20/03/2024 à 13:00 Rdv 11:00-13:00,49.3817833,2.57932,49.2577886,4.031926
734130,Wavrin (FR59),Rennes (FR35),08/04/2024 à 10:00 Rdv 10:00-15:00,09/04/2024 à 11:00 Rdv 9:00-11:00,50.570559,2.932545,48.1113387,-1.6800198
734212,Villevêque (FR49),Rennes (FR35),15/04/2024 à 08:30,15/04/2024 à 16:00 Rdv 14:00-16:00,47.5601026,-0.4230772,48.1113387,-1.6800198
737363,Chartres-de-bretagne (FR35),Rennes (FR35),20/03/2024 à 09:00,20/03/2024 à 11:00 Rdv 9:00-11:00,48.0432406,-1.7082369,48.1113387,-1.6800198
736350,St priest (FR69),Riom (FR63),22/03/2024 à 13:57,22/03/2024 à 18:00 Rdv 16:00-18:00,45.699911230631024,4.940050948355273,45.893068,3.1136667
736398,Perpignan (FR66),Rivesaltes (FR66),21/03/2024 à 14:00 Rdv 14:00-16:00,21/03/2024 à 16:00,42.6985304,2.8953121,42.7683568,2.8709277
735793,Wilrijk (BE26),Roeselare (BE88),18/03/2024 à 12:30,18/03/2024 à 16:30 Rdv 14:30-16:30,51.1700864,4.3942577,50.9444948,3.124765
738272,Poitiers (FR86),Romanèche-thorins (FR71),26/03/2024 à 08:00 Rdv 8:00-10:00,26/03/2024 à 17:00 Rdv 15:00-17:00,46.5802596,0.340196,0.0,0.0
738265,Poitiers (FR86),Romanèche-thorins (FR71),26/03/2024 à 08:00 Rdv 8:00-10:00,26/03/2024 à 17:00 Rdv 15:00-17:00,46.5802596,0.340196,0.0,0.0
734199,Avrigny (FR60),Rouen (FR76),20/03/2024 à 08:30,20/03/2024 à 13:00 Rdv 11:00-13:00,49.3817833,2.57932,49.4404591,1.0939658
737755,Guyancourt (FR78),Rueil-malmaison (FR92),18/03/2024 à 08:30 Rdv 8:30-9:30,18/03/2024 à 10:30,48.7709414,2.0706084,48.8791007996,2.17808008194
737704,Flins-sur-seine (FR78),Rueil-malmaison (FR92),25/03/2024 à 08:00,25/03/2024 à 12:00,48.9623407,1.8684146,48.8791007996,2.17808008194
738127,Seynod (FR74),Rungis (FR94),21/03/2024 à 09:00 Rdv 9:00-11:00,21/03/2024 à 16:00 Rdv 14:30-16:00,0.0,0.0,48.7484048,2.3472665
737527,Ambérieu-en-bugey (FR01),Saint pierre de chandieu (FR69),19/03/2024 à 09:00,19/03/2024 à 16:00 Rdv 14:00-16:00,45.9584309,5.3595099,45.6446435,5.0100345
736394,Clichy (FR92),Saint-aignan-de-grand-lieu (FR44),18/03/2024 à 14:00 Rdv 14:00-16:00,18/03/2024 à 17:00,48.9026,2.30551,47.1224436,-1.6345992
733156,Villepinte (FR93),Saint-aignan-de-grand-lieu (FR44),15/03/2024 à 12:00 Rdv 12:00-14:00,18/03/2024 à 12:00,43.2814917,2.0855714,47.1224436,-1.6345992
730526,Les andelys (FR27),Saint-aignan-de-grand-lieu (FR44),18/03/2024 à 14:00,18/03/2024 à 16:00,49.2469193,1.4215534,47.1224436,-1.6345992
736325,Saint-herblain (FR44),Saint-aignan-grandlieu (FR44),19/03/2024 à 10:30 Rdv 10:30-12:30,19/03/2024 à 16:00,47.2238156,-1.6529932,47.124601,-1.630937
736149,Mulhouse (FR68),Saint-ail (FR54),25/03/2024 à 12:00,25/03/2024 à 16:30,47.7467233,7.3389937,49.1808501,5.9960901
737195,Fessenheim (FR68),Saint-ail (FR54),21/03/2024 à 12:00,21/03/2024 à 16:15,47.915436,7.5360223,49.1808501,5.9960901
736961,Illzach (FR68),Saint-ail (FR54),19/03/2024 à 12:00,19/03/2024 à 16:00,47.7815313,7.347339,49.1808501,5.9960901
736431,Illkirch-graffenstaden (FR67),Saint-ail (FR54),21/03/2024 à 14:00 Rdv 14:00-16:00,22/03/2024 à 09:30,48.5298611,7.7116218,49.1808501,5.9960901
729131,Saint-ail (FR54),Saint-andré-les-vergers (FR10),18/03/2024 à 08:15,18/03/2024 à 17:00,49.1808501,5.9960901,48.2784599,4.0507314
735988,Bassens (FR33),Saint-aubin-de-blaye (FR33),21/03/2024 à 14:00,21/03/2024 à 16:00,44.9015003,-0.5163222,45.2662866,-0.5641823
735360,Castelnau-d\'estrétefonds (FR31),Saint-cernin-de-larche (FR19),02/04/2024 à 09:00,02/04/2024 à 12:00 Rdv 10:00-12:00,43.78251,1.3590892,45.1030652,1.4144957
737408,Ingrandes (FR86),Saint-cyr-sur-loire (FR37),19/03/2024 à 09:10,19/03/2024 à 15:00 Rdv 13:00-15:00,46.8759026,0.5688208,47.4052448,0.6658199
738227,Seynod (FR74),Saint-etienne (FR42),27/03/2024 à 10:30 Rdv 10:30-11:30,27/03/2024 à 15:00 Rdv 14:00-15:00,0.0,0.0,45.4401467,4.3873058
737813,Le cellier (FR44),Saint-grégoire (FR35),20/03/2024 à 08:00,20/03/2024 à 10:00,47.3186735,-1.3465357,0.0,0.0
737185,Guyancourt (FR78),Saint-herblain (FR44),19/03/2024 à 09:00 Rdv 9:00-10:00,19/03/2024 à 15:00 Rdv 14:00-15:00,48.7709414,2.0706084,47.2238156,-1.6529932
736324,Montoir-de-bretagne (FR44),Saint-herblain (FR44),19/03/2024 à 08:30,19/03/2024 à 12:30 Rdv 10:30-12:30,47.3285909,-2.1543171,47.2238156,-1.6529932
736687,Champniers (FR16),Saint-jean-d\'illac (FR33),25/03/2024 à 08:30,25/03/2024 à 11:30,45.7145725,0.2050544,44.8101856,-0.7815257
737637,Albertville (FR73),Saint-jean-de-maurienne (FR73),19/03/2024 à 09:30 Rdv 9:30-10:30,19/03/2024 à 13:00 Rdv 11:30-13:00,45.6754622,6.3925417,45.2775258,6.3453329
737361,Carrières-sous-poissy (FR78),Saint-laurent-nouan (FR41),19/03/2024 à 08:30,19/03/2024 à 14:00 Rdv 12:00-14:00,48.9437694,2.0341747,47.7169881,1.6116899
735630,Montoir-de-bretagne (FR44),Saint-laurent-sur-sèvre (FR85),25/03/2024 à 08:00,25/03/2024 à 11:30,47.3285909,-2.1543171,46.9597454,-0.8888005
737871,Miramas (FR13),Saint-maximin-la-sainte-baume (FR83),20/03/2024 à 10:00 Rdv 10:00-12:00,20/03/2024 à 14:00 Rdv 12:00-14:00,43.582733,5.0025809,43.4522053,5.862294
737601,Saint pierre de chandieu (FR69),Saint-priest (FR69),19/03/2024 à 14:00 Rdv 14:00-16:00,19/03/2024 à 16:00,45.6446435,5.0100345,0.0,0.0
735646,Mougins (FR06),Saint-raphaël (FR83),26/03/2024 à 10:45 Rdv 10:45-11:45,26/03/2024 à 15:00 Rdv 13:00-15:00,43.6008898,6.9963543,45.3043079,1.0747165
735986,Bassens (FR33),Saint-sulpice-et-cameyrac (FR33),15/03/2024 à 09:00,15/03/2024 à 12:00 Rdv 10:30-12:00,44.9015003,-0.5163222,0.0,0.0
738042,Corbas (FR69),Saint-vulbas (FR01),20/03/2024 à 10:00 Rdv 10:00-12:00,20/03/2024 à 16:00,45.6662663,4.9015205,45.8306,5.28959
735729,Dijon (FR21),Saint-vulbas (FR01),19/03/2024 à 14:00 Rdv 14:00-16:00,20/03/2024 à 12:00,47.3215806,5.0414701,45.8306,5.28959
738051,Chaponost (FR69),Saint-vulbas (FR01),25/03/2024 à 11:00 Rdv 11:00-13:00,25/03/2024 à 16:00,0.0,0.0,45.8306,5.28959
737149,Lyon (FR69),Saint-vulbas (FR01),19/03/2024 à 15:30,20/03/2024 à 15:30,45.7578137,4.8320114,45.8306,5.28959
737105,Frontenex (FR73),Saint-vulbas (FR01),04/04/2024 à 14:00,04/04/2024 à 16:00,45.6344,6.31187,45.8306,5.28959
736341,Miramas (FR13),Salon de provence (FR13),08/04/2024 à 08:00,08/04/2024 à 11:00 Rdv 9:00-11:00,43.582733,5.0025809,43.6405237,5.0980225
736555,Rognac (FR13),Salon-de-provence (FR13),20/03/2024 à 09:30,20/03/2024 à 12:15 Rdv 10:15-12:15,43.4872341,5.2342903,0.0,0.0
737923,Niort (FR79),Savenay (FR44),20/03/2024 à 10:00 Rdv 10:00-11:00,20/03/2024 à 14:00 Rdv 13:00-14:00,46.3239233,-0.4646064,0.0,0.0
737140,Tarnos (FR40),Serres-castet (FR64),20/03/2024 à 08:00,20/03/2024 à 11:00,43.5405622,-1.4611915,43.3861879,-0.3541989
738228,Saint-etienne (FR42),Seynod (FR74),27/03/2024 à 14:00 Rdv 14:00-15:00,27/03/2024 à 17:30,45.4401467,4.3873058,0.0,0.0
738128,Rungis (FR94),Seynod (FR74),21/03/2024 à 14:30 Rdv 14:30-16:00,22/03/2024 à 15:00,48.7484048,2.3472665,0.0,0.0
732473,Watermael-boitsfort (BE11),Sint-niklaas (BE91),08/03/2024 à 09:30,20/03/2024 à 15:30,50.7981063,4.4176441,51.1646685,4.1395124
738154,Epinal (FR88),Stutzheim-offenheim (FR67),18/03/2024 à 08:00,20/03/2024 à 18:00,0.0,0.0,0.0,0.0
737112,Tarnos (FR40),Tarbes (FR65),20/03/2024 à 08:00,20/03/2024 à 10:00,43.5405622,-1.4611915,43.232858,781021.0
734960,Bassens (FR33),Tarbes (FR65),20/03/2024 à 09:30,20/03/2024 à 14:00 Rdv 12:00-14:00,44.9015003,-0.5163222,43.232858,781021.0
736735,Bidart (FR64),Tarnos (FR40),19/03/2024 à 14:00 Rdv 14:00-16:00,20/03/2024 à 11:00,43.4391702,-1.5898909,43.5405622,-1.4611915
737158,Lacq (FR64),Tarnos (FR40),21/03/2024 à 11:00,21/03/2024 à 16:30,43.42474795,-0.6137677299515235,43.5405622,-1.4611915
737129,Tarnos (FR40),Tartas (FR40),20/03/2024 à 08:00,20/03/2024 à 11:00,43.5405622,-1.4611915,43.8323121,-0.8095934
735658,Templeuve (FR59),Taverny (FR95),15/03/2024 à 12:00 Rdv 12:00-14:00,15/03/2024 à 17:00 Rdv 15:00-17:00,0.0,0.0,49.0265888,2.2234971
737832,Illzach (FR68),Thann (FR68),19/03/2024 à 09:45,19/03/2024 à 10:30,47.7815313,7.347339,47.8101008,7.1020957
731169,Entzheim (FR67),Thiaucourt-regniéville (FR54),21/03/2024 à 09:36,21/03/2024 à 14:00 Rdv 12:00-14:00,48.5346177,7.6358832,48.9544506,5.8675157
736971,Saint-quentin (FR02),Tinqueux (FR51),19/03/2024 à 08:30,19/03/2024 à 10:30,49.8465253,3.2876843,0.0,0.0
737770,Bassens (FR33),Toulouse (FR31),22/03/2024 à 08:30,22/03/2024 à 14:00 Rdv 12:00-14:00,44.9015003,-0.5163222,43.6044622,1.4442469
737549,Poitiers (FR86),Tours (FR37),20/03/2024 à 10:00 Rdv 10:00-11:00,20/03/2024 à 14:30 Rdv 13:30-14:30,46.5802596,0.340196,0.0,0.0
737836,Bourges (FR18),Val-fouzon (FR36),21/03/2024 à 08:00,21/03/2024 à 10:00,47.0811658,2.399125,0.0,0.0
737801,Ozoir-la-ferrière (FR77),Valenton (FR94),01/04/2024 à 09:00,01/04/2024 à 11:30,0.0,0.0,48.7443189,2.4699741
737200,Billancelles (FR28),Valenton (FR94),29/03/2024 à 12:00,29/03/2024 à 15:45,48.4865445,1.2154512,48.7443189,2.4699741
737575,Avrigny (FR60),Valff (FR67),25/03/2024 à 09:00,25/03/2024 à 17:00 Rdv 15:00-17:00,49.3817833,2.57932,0.0,0.0
736795,Chartres-de-bretagne (FR35),Valognes (FR50),22/03/2024 à 08:30,22/03/2024 à 16:00 Rdv 14:00-16:00,48.0432406,-1.7082369,49.5089547,-1.4708174
734992,Le mans (FR72),Varaville (FR14),18/03/2024 à 10:00,18/03/2024 à 15:00 Rdv 13:00-15:00,48.0073849,0.1967849,49.253386,-0.1582652
738248,Bourges (FR18),Varennes-sur-allier (FR03),20/03/2024 à 08:00,20/03/2024 à 16:00,47.0811658,2.399125,0.0,0.0
737260,Hellemmes-lille (FR59),Vendin-lès-béthune (FR62),21/03/2024 à 10:00 Rdv 10:00-12:00,21/03/2024 à 16:00,0.0,0.0,50.548777,2.6008182
736930,Halluin (FR59),Vendin-lès-béthune (FR62),25/03/2024 à 11:00 Rdv 11:00-13:00,25/03/2024 à 16:00,50.7826693,3.1249234,50.548777,2.6008182
735459,Bassens (FR33),Villenave-d\'ornon (FR33),15/03/2024 à 09:00,15/03/2024 à 12:00 Rdv 10:00-12:00,44.9015003,-0.5163222,44.7737872,-0.5595029
737815,Wambrechies (FR59),Villeneuve-d\'ascq (FR59),03/04/2024 à 15:00,03/04/2024 à 16:30,0.0,0.0,50.6193174,3.1314002
738142,Bazouges-la-pérouse (FR35),Villevêque (FR49),25/03/2024 à 08:30 Rdv 8:30-10:30,25/03/2024 à 18:30,48.4263498,-1.5744163,47.5601026,-0.4230772
735706,Romorantin-lanthenay (FR41),Villevêque (FR49),18/03/2024 à 09:00 Rdv 9:00-11:00,18/03/2024 à 16:00,47.3592182,1.7434925,47.5601026,-0.4230772
738159,Rennes (FR35),Villevêque (FR49),25/03/2024 à 09:00 Rdv 9:00-11:00,25/03/2024 à 16:00,48.1113387,-1.6800198,47.5601026,-0.4230772
738164,Rennes (FR35),Villevêque (FR49),25/03/2024 à 09:00 Rdv 9:00-11:00,25/03/2024 à 16:00,48.1113387,-1.6800198,47.5601026,-0.4230772
738152,Rennes (FR35),Villevêque (FR49),25/03/2024 à 09:00 Rdv 9:00-11:00,25/03/2024 à 16:00,48.1113387,-1.6800198,47.5601026,-0.4230772
738178,Rennes (FR35),Villevêque (FR49),25/03/2024 à 09:00 Rdv 9:00-11:00,25/03/2024 à 16:00,48.1113387,-1.6800198,47.5601026,-0.4230772
732598,La riche (FR37),Vivonne (FR86),19/03/2024 à 09:00,19/03/2024 à 11:00,47.3881295,0.6572824,46.4262128,0.2584318
738204,Prisse (FR71),Vénissieux (FR69),02/04/2024 à 09:00,02/04/2024 à 11:30,46.3212198,4.7448989,45.6977109,4.8855966
736162,La motte-servolex (FR73),Vénissieux (FR69),27/03/2024 à 09:00,27/03/2024 à 11:30,45.5984113,5.8767935,45.6977109,4.8855966
737814,Berck (FR62),Wambrechies (FR59),03/04/2024 à 09:30,03/04/2024 à 15:00,0.0,0.0,0.0,0.0
737748,Grugny (FR76),Wavrin (FR59),22/03/2024 à 09:00 Rdv 9:00-11:00,22/03/2024 à 16:00,0.0,0.0,50.570559,2.932545
737674,Thièvres (FR62),Wavrin (FR59),20/03/2024 à 14:00 Rdv 14:00-15:00,20/03/2024 à 16:30 Rdv 15:30-16:30,50.1301182,2.4535901,50.570559,2.932545
738053,Etaimpuis (FR76),Wavrin (FR59),22/03/2024 à 09:00 Rdv 9:00-11:00,22/03/2024 à 16:00,0.0,0.0,50.570559,2.932545
735794,Roeselare (BE88),Wilrijk (BE26),18/03/2024 à 14:30 Rdv 14:30-16:30,18/03/2024 à 16:45,50.9444948,3.124765,51.1700864,4.3942577
737952,Rivery (FR80),Wintzenheim (FR68),01/04/2024 à 16:00,02/04/2024 à 10:00,49.9005828,2.3216925,0.0,0.0
736464,Nanterre (FR92),Woippy (FR57),19/03/2024 à 09:00,19/03/2024 à 16:00 Rdv 14:00-16:00,48.8924273,2.2071267,49.1515848,6.1519224
733982,Zwijndrecht (BE20),Zwijndrecht (BE20),04/04/2024 à 09:00 Rdv 9:00-10:00,04/04/2024 à 12:00 Rdv 11:00-12:00,51.8162227,4.6405166,51.8162227,4.6405166
737678,Machelen (BE18),Zwijndrecht (BE20),18/03/2024 à 07:30,18/03/2024 à 13:00,50.903150350789616,4.449248232844452,51.8162227,4.6405166
734355,Forbach (FR57),Épinal (FR88),27/03/2024 à 08:30,27/03/2024 à 12:00 Rdv 10:00-12:00,49.1862822,6.8958562,48.1747684,6.4503643
