IDtrajet,Ville de Départ,Ville d'arrivée,A partir du,Jusqu'au,Départ_Latitude,Départ_Longitude,Arrivé_Latitude,Arrivé_Longitude
737208,Guyancourt (FR78),Aix-en-provence (FR13),18/03/2024 à 10:00 Rdv 10:00-11:00,19/03/2024 à 11:00 Rdv 10:00-11:00,48.7709414,2.0706084,43.5298424,5.4474738
737329,Castellbisbal (ES08),Albacete (ES02),14/03/2024 à 09:00,15/03/2024 à 15:30,41.4765136,1.9832978,38.9950921,-1.8559154
737612,Leers (FR59),Albertville (FR73),18/03/2024 à 13:00 Rdv 13:00-15:00,19/03/2024 à 19:00 Rdv 17:00-19:00,50.6792095,3.2399516,45.6754622,6.3925417
734964,Montauban (FR82),Albias (FR82),20/03/2024 à 12:00 Rdv 12:00-14:00,20/03/2024 à 16:00,44.0175835,1.3549991,44.0908333,1.4502778
737344,Vélez-rubio (ES04),Alicante-alacant (ES03),15/03/2024 à 09:00 Rdv 9:00-12:00,15/03/2024 à 14:30,37.6482765,-2.0745368,38.3436365,-0.4881708
737357,Favara (ES46),Alicante-alacant (ES03),15/03/2024 à 12:15 Rdv 12:15-13:15,15/03/2024 à 14:30,41.1779426,0.1676103,38.3436365,-0.4881708
737490,Loiu (ES48),Almendralejo (ES06),14/03/2024 à 09:00,15/03/2024 à 15:00,43.3147645,-2.9388878,38.6846791,-6.4067802
736869,Mérignac (FR33),Ambarès-et-lagrave (FR33),20/03/2024 à 13:00 Rdv 13:00-15:00,20/03/2024 à 16:00,44.842168,-0.6469022,44.9259011,-0.4881846
737084,Biarritz (FR64),Ambarès-et-lagrave (FR33),20/03/2024 à 14:00 Rdv 14:00-16:00,21/03/2024 à 12:00,43.4832523,-1.5592776,44.9259011,-0.4881846
735933,Mérignac (FR33),Ambarès-et-lagrave (FR33),26/03/2024 à 10:00 Rdv 10:00-12:00,26/03/2024 à 12:00,44.842168,-0.6469022,44.9259011,-0.4881846
734122,Clermont-ferrand (FR63),Ambérieu-en-bugey (FR01),26/03/2024 à 14:00 Rdv 14:00-16:00,27/03/2024 à 12:00,45.7774551,3.0819427,45.9584309,5.3595099
736862,Clermont-ferrand (FR63),Ambérieu-en-bugey (FR01),26/03/2024 à 14:00,27/03/2024 à 12:00,45.7774551,3.0819427,45.9584309,5.3595099
734065,Mende (FR48),Ambérieu-en-bugey (FR01),11/04/2024 à 10:00 Rdv 10:00-12:00,11/04/2024 à 16:00,44.5180226,3.4991057,45.9584309,5.3595099
736118,Toulon (FR83),Ambérieu-en-bugey (FR01),18/03/2024 à 11:30 Rdv 11:30-13:30,18/03/2024 à 16:00,43.13384507846755,5.930004113739942,45.9584309,5.3595099
735453,Montbonnot saint martin (FR38),Ambérieu-en-bugey (FR01),02/04/2024 à 12:00 Rdv 12:00-13:00,02/04/2024 à 15:30,45.2264498,5.80266,45.9584309,5.3595099
736641,Julienas (FR69),Ambérieu-en-bugey (FR01),20/03/2024 à 13:00 Rdv 13:00-15:00,20/03/2024 à 16:00,46.2347371,4.7114718,45.9584309,5.3595099
736989,Malataverne (FR26),Ambérieu-en-bugey (FR01),18/03/2024 à 09:00 Rdv 9:00-11:00,18/03/2024 à 16:00,44.4864576,4.7517236,45.9584309,5.3595099
736110,Avignon (FR84),Ambérieu-en-bugey (FR01),19/03/2024 à 13:00 Rdv 13:00-15:00,19/03/2024 à 16:00,4.87174987793,43.9343986511,45.9584309,5.3595099
735222,Vebret (FR15),Ambérieu-en-bugey (FR01),15/03/2024 à 09:00 Rdv 9:00-11:00,15/03/2024 à 14:38,45.3396393,2.5196497,45.9584309,5.3595099
734083,Nice (FR06),Ambérieu-en-bugey (FR01),18/03/2024 à 14:00 Rdv 14:00-16:00,19/03/2024 à 16:00,43.7009358,7.2683912,45.9584309,5.3595099
737519,La louvière (BE71),Antwerpen (BE21),18/03/2024 à 09:00,20/03/2024 à 15:00,50.4791337,4.161348292428827,51.2211097,4.3997081
737512,Anderlecht (BE10),Antwerpen (BE21),18/03/2024 à 09:00,18/03/2024 à 15:00,50.8390983,4.3296526,51.2211097,4.3997081
737517,Asse (BE17),Antwerpen (BE21),18/03/2024 à 09:00,20/03/2024 à 15:00,50.9094333,4.2015646,51.2211097,4.3997081
737523,Seraing (BE41),Antwerpen (BE21),18/03/2024 à 09:00,20/03/2024 à 15:00,50.6152381,5.5089437,51.2211097,4.3997081
737509,Zaventem (BE19),Antwerpen (BE21),18/03/2024 à 09:00,18/03/2024 à 15:00,50.8806207,4.4730008,51.2211097,4.3997081
737510,Zaventem (BE19),Antwerpen (BE21),18/03/2024 à 09:00,18/03/2024 à 15:00,50.8806207,4.4730008,51.2211097,4.3997081
736244,Cran-gevrier (FR74),Archamps (FR74),18/03/2024 à 09:00,18/03/2024 à 11:00 Rdv 9:00-11:00,45.9079102,6.106538,46.1354538,6.1332458
737111,La chapelle-d\'aurec (FR43),Aubière (FR63),03/04/2024 à 11:00 Rdv 11:00-12:00,03/04/2024 à 15:00,45.3355965,4.2072832,45.7512575,3.1144195
736109,Miramas (FR13),Avignon (FR84),19/03/2024 à 08:30,19/03/2024 à 15:00 Rdv 13:00-15:00,43.582733,5.0025809,4.87174987793,43.9343986511
737406,Annœullin (FR59),Avion (FR62),15/03/2024 à 09:00 Rdv 9:00-10:00,15/03/2024 à 16:00 Rdv 14:00-16:00,50.5279,2.92648,50.4126128,2.8343891
737557,Navaconcejo (ES10),Azuqueca de henares (ES19),18/03/2024 à 10:00 Rdv 10:00-12:00,18/03/2024 à 17:45,40.1767957,-5.8296185,40.5683808,-3.2627134
737055,Loeches (ES28),Badarán (ES26),18/03/2024 à 09:00,18/03/2024 à 16:00 Rdv 14:00-16:00,40.3837901,-3.4092281,42.3677057,-2.8083919
736189,Arras (FR62),Bailly-romainvilliers (FR77),22/03/2024 à 09:00,22/03/2024 à 11:00,50.290277,2.776273,2.8247398,48.8471425
736240,Toulouse (FR31),Balma (FR31),18/03/2024 à 10:00,18/03/2024 à 16:00 Rdv 15:00-16:00,43.6044622,1.4442469,43.6259022,1.4853573
737266,Santa perpètua de mogoda (ES08),Barcelona (ES08),18/03/2024 à 09:00,18/03/2024 à 12:00 Rdv 10:00-12:00,41.5328106,2.1823309,0.0,0.0
737606,Valladolid (ES47),Barcelone (ES08),14/03/2024 à 09:00,15/03/2024 à 16:00 Rdv 9:00-16:00,41.6521328,-4.728562,41.3828939,2.1774322
737603,Ramonville-saint-agne (FR31),Bassens (FR33),18/03/2024 à 09:00 Rdv 9:00-10:00,18/03/2024 à 15:00 Rdv 13:00-15:00,43.5460533,1.4749101,44.9015003,-0.5163222
736614,Le chateau d'oleron (FR17),Bassens (FR33),24/04/2024 à 09:00,24/04/2024 à 11:30,45.8866143,-1.1953301,44.9015003,-0.5163222
734710,Saint-médard-en-jalles (FR33),Bassens (FR33),05/04/2024 à 09:00,05/04/2024 à 11:30,44.8958887,-0.7170764,44.9015003,-0.5163222
737078,Tarnos (FR40),Bayonne (FR64),19/03/2024 à 08:00,19/03/2024 à 10:00,43.5405622,-1.4611915,43.4945144,-1.4736657
737015,Le boulou (FR66),Beaulieu (FR34),20/03/2024 à 08:15,20/03/2024 à 11:00,45.4051111,0.5863309,47.7277699,4.7269377
737275,Seseña (ES45),Benavente (ES49),15/03/2024 à 14:30 Rdv 14:30-16:30,15/03/2024 à 20:00 Rdv 18:00-20:00,40.1048269,-3.6963093,42.0032862,-5.6738595
737080,Castelnau-destrétefonds (FR31),Biarritz (FR64),20/03/2024 à 09:00,20/03/2024 à 16:00 Rdv 14:00-16:00,0.0,0.0,43.4832523,-1.5592776
736734,Tarnos (FR40),Bidart (FR64),19/03/2024 à 08:00,19/03/2024 à 16:00 Rdv 14:00-16:00,43.5405622,-1.4611915,43.4391702,-1.5898909
737199,Valenton (FR94),Billancelles (FR28),29/03/2024 à 09:00,29/03/2024 à 12:00,48.7443189,2.4699741,48.4865445,1.2154512
736743,Illzach (FR68),Biltzheim (FR68),02/04/2024 à 09:00,02/04/2024 à 11:00 Rdv 9:00-11:00,47.7815313,7.347339,47.9585244,7.3896085
737457,Poitiers (FR86),Blain (FR44),22/03/2024 à 08:30 Rdv 8:30-9:30,22/03/2024 à 16:00 Rdv 14:00-16:00,46.5802596,0.340196,47.4755536,-1.7643647
737310,Wilrijk (BE26),Boom (BE28),23/03/2024 à 07:00,23/03/2024 à 09:45 Rdv 7:45-9:45,51.1700864,4.3942577,51.0873789,4.3667216
736276,Rueil-malmaison (FR92),Boulogne-billancourt (FR92),20/03/2024 à 14:00,20/03/2024 à 15:00,48.8791007996,2.17808008194,0.0,0.0
735561,Marckolsheim (FR67),Boult (FR70),18/03/2024 à 08:30,18/03/2024 à 14:00 Rdv 12:00-14:00,48.165441,7.5444161,47.3816152,6.0006908
736796,Valognes (FR50),Bourgtheroulde (FR27),22/03/2024 à 14:00 Rdv 14:00-16:00,22/03/2024 à 16:00,49.5089547,-1.4708174,0.0,0.0
737538,Guer (FR56),Brech (FR56),19/03/2024 à 10:00 Rdv 10:00-12:00,19/03/2024 à 16:00,47.9036655,-2.1221276,47.721585,-2.9969193
735842,Saint-brieuc (FR22),Brech (FR56),20/03/2024 à 17:00,21/03/2024 à 17:00,48.5141134,-2.7603283,47.721585,-2.9969193
737563,Orvault (FR44),Brive-la-gaillarde (FR19),19/03/2024 à 17:00 Rdv 17:00-19:00,20/03/2024 à 14:00,-1.6194319725,47.2511912196,45.1584982,1.5332389
737180,La roche-sur-yon (FR85),Bruges (FR33),27/03/2024 à 12:00,27/03/2024 à 16:00,46.6705431,-1.4269698,51.2085526,3.226772
736993,Canéjan (FR33),Bruges (FR33),21/03/2024 à 10:00,21/03/2024 à 11:00,44.7626562,-0.6540587,51.2085526,3.226772
736598,Awans (BE43),Bruxelles (BE10),18/03/2024 à 11:00 Rdv 11:00-13:00,18/03/2024 à 15:00,50.6670346,5.4622239,50.8550018,4.3512333761166175
736992,Bassens (FR33),Canéjan (FR33),21/03/2024 à 09:00,21/03/2024 à 10:00,44.9015003,-0.5163222,44.7626562,-0.6540587
737576,Valbonne (FR06),Carros (FR06),21/03/2024 à 14:00 Rdv 14:00-16:00,21/03/2024 à 16:00,43.641141,7.0086255,43.7846,7.18785
736112,Montpellier (FR34),Castelnau-d'estrétefonds (FR31),10/04/2024 à 14:00 Rdv 14:00-16:00,10/04/2024 à 16:00,43.6112422,3.8767337,43.78251,1.3590892
736120,Montpellier (FR34),Castelnau-d'estrétefonds (FR31),10/04/2024 à 09:00 Rdv 9:00-11:00,10/04/2024 à 16:00,43.6112422,3.8767337,43.78251,1.3590892
736116,Montpellier (FR34),Castelnau-d'estrétefonds (FR31),10/04/2024 à 10:00 Rdv 10:00-12:00,10/04/2024 à 16:00,43.6112422,3.8767337,43.78251,1.3590892
736114,Montpellier (FR34),Castelnau-d'estrétefonds (FR31),10/04/2024 à 13:30 Rdv 13:30-15:30,10/04/2024 à 16:00,43.6112422,3.8767337,43.78251,1.3590892
734236,Mont-de-marsan (FR40),Castelnau-d'estrétefonds (FR31),18/03/2024 à 11:00 Rdv 11:00-13:00,18/03/2024 à 16:00,43.8911318,-0.500972,43.78251,1.3590892
734147,Mont-de-marsan (FR40),Castelnau-d'estrétefonds (FR31),18/03/2024 à 11:00 Rdv 11:00-13:00,18/03/2024 à 16:00,43.8911318,-0.500972,43.78251,1.3590892
736241,Balma (FR31),Castelnau-d\'estrétefonds (FR31),18/03/2024 à 15:00 Rdv 15:00-16:00,19/03/2024 à 12:00,43.6259022,1.4853573,43.78251,1.3590892
736966,Noe (FR31),Castelnau-d\'estrétefonds (FR31),18/03/2024 à 14:00 Rdv 14:00-16:00,19/03/2024 à 12:00,0.0,0.0,43.78251,1.3590892
737467,Mur-de-barrez (FR12),Castelnau-d\'estrétefonds (FR31),26/03/2024 à 14:00 Rdv 14:00-15:00,27/03/2024 à 12:00,44.8416264,2.6635471,43.78251,1.3590892
734961,Tarbes (FR65),Castelnau-d\'estrétefonds (FR31),20/03/2024 à 12:00 Rdv 12:00-14:00,20/03/2024 à 16:00,43.232858,781021.0,43.78251,1.3590892
736386,Toulon (FR83),Castelnau-destrétefonds (FR31),19/03/2024 à 09:00,19/03/2024 à 15:30,43.13384507846755,5.930004113739942,0.0,0.0
733845,Saint-ail (FR54),Cattenom (FR57),19/03/2024 à 08:15,19/03/2024 à 12:00 Rdv 10:00-12:00,49.1808501,5.9960901,49.4074405,6.244669
736415,Thann (FR68),Cesson (FR77),21/03/2024 à 08:30,21/03/2024 à 15:00,47.8101008,7.1020957,48.5624381,2.6021145
737163,Guyancourt (FR78),Cesson-sévigné (FR35),19/03/2024 à 08:30 Rdv 8:30-9:30,19/03/2024 à 15:00 Rdv 14:00-15:00,48.7709414,2.0706084,0.0,0.0
734917,Bassens (FR33),Chamalières (FR63),02/04/2024 à 08:30,02/04/2024 à 16:00 Rdv 14:00-16:00,44.9015003,-0.5163222,45.776018,3.0681174
736999,Bassussarry (FR64),Chambœuf (FR42),18/03/2024 à 09:45 Rdv 9:45-11:45,20/03/2024 à 19:00 Rdv 17:00-19:00,43.4464338,-1.5149178,47.2301089,4.9049675
736688,Saint-jean-d\'illac (FR33),Champniers (FR16),25/03/2024 à 11:30,25/03/2024 à 16:00,44.8101856,-0.7815257,45.7145725,0.2050544
732040,Hasselt (BE35),Charleroi (BE60),25/03/2024 à 08:30,25/03/2024 à 10:30,50.9303735,5.3378043,50.4116233,4.444528
735490,Dijon (FR21),Chevigny-saint-sauveur (FR21),21/03/2024 à 10:30,21/03/2024 à 15:00,47.3215806,5.0414701,47.2977106,5.1382218
736670,Villeneuve-saint-georges (FR94),Chirens (FR38),19/03/2024 à 09:00,19/03/2024 à 16:00,48.7305272,2.44782,45.4138,5.55661
735389,Franconville (FR95),Château-thébaud (FR44),20/03/2024 à 15:00 Rdv 15:00-17:00,20/03/2024 à 18:00,48.5000906,6.4527267,0.0,0.0
734610,Lieusaint (FR77),Château-thébaud (FR44),18/03/2024 à 13:00 Rdv 13:00-15:00,18/03/2024 à 16:00,0.0,0.0,0.0,0.0
735240,Rueil malmaison (FR92),Château-thébaud (FR44),20/03/2024 à 15:00 Rdv 15:00-17:00,20/03/2024 à 19:00,48.87778,2.1802832,0.0,0.0
736381,Miramas (FR13),Châteauneuf-de-gadagne (FR84),25/03/2024 à 08:30,25/03/2024 à 13:00 Rdv 11:00-13:00,43.582733,5.0025809,43.927603,4.9442687
735495,Neuvy (FR41),Clamecy (FR58),19/03/2024 à 11:00,19/03/2024 à 17:00 Rdv 15:00-17:00,48.7469304,3.5177618,49.4286111,3.3619444
737144,Guyancourt (FR78),Clermont-ferrand (FR63),18/03/2024 à 14:00 Rdv 14:00-15:00,19/03/2024 à 10:00 Rdv 9:00-10:00,48.7709414,2.0706084,45.7774551,3.0819427
734121,Castelnau-d'estrétefonds (FR31),Clermont-ferrand (FR63),26/03/2024 à 08:30,26/03/2024 à 16:00 Rdv 14:00-16:00,43.78251,1.3590892,45.7774551,3.0819427
736861,Castelnau-d'estrétefonds (FR31),Clermont-ferrand (FR63),26/03/2024 à 09:15,26/03/2024 à 16:00 Rdv 14:00-16:00,43.78251,1.3590892,45.7774551,3.0819427
737501,Bassens (FR33),Clermont-ferrand (FR63),19/03/2024 à 08:30,19/03/2024 à 15:00 Rdv 13:00-15:00,44.9015003,-0.5163222,45.7774551,3.0819427
737410,La norville (FR91),Colombes (FR92),25/03/2024 à 08:30,25/03/2024 à 12:00 Rdv 10:00-12:00,48.5856753,2.2583893,48.922788,2.2543577
737514,Fontaines-saint-martin (FR69),Colombier-saugnieu (FR69),20/03/2024 à 09:00 Rdv 9:00-10:00,20/03/2024 à 11:15,45.8442606,4.8547594,45.7113787,5.1119241
737122,Gerzat (FR63),Colombier-saugnieu (FR69),15/03/2024 à 11:45 Rdv 11:45-12:45,15/03/2024 à 16:15 Rdv 14:15-16:15,45.8250404,3.1435185,45.7113787,5.1119241
737595,Meyreuil (FR13),Corbas (FR69),19/03/2024 à 09:00,19/03/2024 à 15:30,43.4867359,5.4952155,45.6662663,4.9015205
737596,Meyreuil (FR13),Corbas (FR69),19/03/2024 à 09:00,19/03/2024 à 15:30,43.4867359,5.4952155,45.6662663,4.9015205
733799,Avrigny (FR60),Corbehem (FR62),15/03/2024 à 09:00,15/03/2024 à 12:00 Rdv 10:00-12:00,49.3817833,2.57932,0.0,0.0
737409,Evere (BE11),Court-st.-étienne (BE14),15/03/2024 à 10:00,15/03/2024 à 16:00,50.8720096,4.4034182,50.6443208,4.5685766
736672,Neuvy (FR41),Cruzy-le-châtel (FR89),21/03/2024 à 10:00,21/03/2024 à 16:00 Rdv 14:00-16:00,48.7469304,3.5177618,47.8554593,4.2115505
737283,Seseña (ES45),Cáceres (ES10),15/03/2024 à 13:45 Rdv 13:45-15:45,15/03/2024 à 19:00 Rdv 17:00-19:00,40.1048269,-3.6963093,39.4745175,-6.3716761
737257,Etterbeek (BE10),Diegem (BE18),18/03/2024 à 10:15,18/03/2024 à 12:15,50.8361447,4.3861737,50.8945555,4.4365042
735489,Chevigny-saint-sauveur (FR21),Dijon (FR21),21/03/2024 à 09:00,21/03/2024 à 10:30,47.2977106,5.1382218,47.3215806,5.0414701
735728,Marckolsheim (FR67),Dijon (FR21),19/03/2024 à 08:30,19/03/2024 à 16:00 Rdv 14:00-16:00,48.165441,7.5444161,47.3215806,5.0414701
737342,Roncq (FR59),Escaudain (FR59),15/03/2024 à 11:30,15/03/2024 à 16:30 Rdv 14:30-16:30,50.7531232,3.1209016,50.3333247,3.3438289
735454,Bassens (FR33),Essarts-en-bocage (FR85),25/03/2024 à 13:00,25/03/2024 à 16:30,44.9015003,-0.5163222,46.78605775,-1.2528102863462225
737041,Beringen (BE35),Evergem (BE99),15/03/2024 à 09:00,15/03/2024 à 14:00,51.0489641,5.2266869,51.1087891,3.7078565
737194,Saint-ail (FR54),Fessenheim (FR68),21/03/2024 à 08:15,21/03/2024 à 12:00,49.1808501,5.9960901,47.915436,7.5360223
734126,Guéret (FR23),Fleury-mérogis (FR91),18/03/2024 à 13:00 Rdv 13:00-15:00,19/03/2024 à 12:00,46.1686865,1.8713349,48.629965,2.3609313
734243,Rouen (FR76),Fleury-mérogis (FR91),20/03/2024 à 11:00 Rdv 11:00-13:00,20/03/2024 à 16:00,49.4404591,1.0939658,48.629965,2.3609313
734131,Rennes (FR35),Fleury-mérogis (FR91),09/04/2024 à 09:00 Rdv 9:00-11:00,09/04/2024 à 16:15,48.1113387,-1.6800198,48.629965,2.3609313
734213,Rennes (FR35),Fleury-mérogis (FR91),15/04/2024 à 14:00 Rdv 14:00-16:00,16/04/2024 à 11:00,48.1113387,-1.6800198,48.629965,2.3609313
734356,Épinal (FR88),Fleury-mérogis (FR91),27/03/2024 à 10:00 Rdv 10:00-12:00,27/03/2024 à 16:45,48.1747684,6.4503643,48.629965,2.3609313
736830,Allenjoie (FR25),Forbach (FR57),18/03/2024 à 09:00 Rdv 9:00-11:00,18/03/2024 à 16:00,47.5340068,6.8970352,49.1862822,6.8958562
735402,Ungersheim (FR68),Forbach (FR57),20/03/2024 à 09:00 Rdv 9:00-11:00,20/03/2024 à 16:00,47.877868,7.304028,49.1862822,6.8958562
737568,Chatenois (FR67),Forbach (FR57),27/03/2024 à 10:01,27/03/2024 à 15:02,48.272548,7.4013652,49.1862822,6.8958562
737063,Ennery (FR57),Forbach (FR57),19/03/2024 à 09:00,19/03/2024 à 11:28,49.2256191,6.2197994,49.1862822,6.8958562
737104,Rivery (FR80),Frontenex (FR73),03/04/2024 à 16:00,04/04/2024 à 14:00,49.9005828,2.3216925,45.6344,6.31187
737229,Nice (FR06),Gardanne (FR13),21/03/2024 à 08:30 Rdv 8:30-9:30,21/03/2024 à 13:00 Rdv 11:00-13:00,43.7009358,7.2683912,43.455613,5.4710661
735597,Geel (BE24),Geel (BE24),15/03/2024 à 11:00,15/03/2024 à 14:00 Rdv 13:00-14:00,51.1610826,4.9903187,51.1610826,4.9903187
735598,Geel (BE24),Geel (BE24),15/03/2024 à 13:00 Rdv 13:00-14:00,15/03/2024 à 15:15,51.1610826,4.9903187,51.1610826,4.9903187
736588,Ludres (FR54),Geneuille (FR25),19/03/2024 à 09:00,19/03/2024 à 15:00 Rdv 14:00-15:00,48.6217058,6.1609279,47.3232842,5.971252
736972,Watermaal-bosvoorde (BE11),Genk (BE36),21/03/2024 à 11:00,21/03/2024 à 14:30 Rdv 12:30-14:30,50.7981063,4.4176441,50.9654864,5.5001456
737076,Charleroi (BE60),Genk (BE36),18/03/2024 à 08:30 Rdv 8:30-10:30,18/03/2024 à 15:00,50.4116233,4.444528,50.9654864,5.5001456
736292,Kortrijk (BE85),Gent (BE90),27/03/2024 à 08:30 Rdv 8:30-9:30,27/03/2024 à 11:45,50.8276429,3.2659884,51.0538286,3.7250121
736055,Tournai (BE75),Gent (BE90),18/03/2024 à 09:00,18/03/2024 à 17:00,50.6056458,3.3878179,51.0538286,3.7250121
736599,Fleury-mérogis (FR91),Gonesse (FR95),15/03/2024 à 15:00 Rdv 15:00-16:00,16/03/2024 à 17:00 Rdv 15:00-17:00,48.629965,2.3609313,0.0,0.0
736224,Bassens (FR33),Gradignan (FR33),21/03/2024 à 10:00,21/03/2024 à 14:00 Rdv 12:00-14:00,44.9015003,-0.5163222,44.7739701,-0.613907
737371,Marckolsheim (FR67),Grosbliederstroff (FR57),19/03/2024 à 08:30,19/03/2024 à 14:00 Rdv 12:00-14:00,48.165441,7.5444161,49.1564879,7.0254677
737537,Montoir-de-bretagne (FR44),Guer (FR56),19/03/2024 à 08:30,19/03/2024 à 12:00 Rdv 10:00-12:00,47.3285909,-2.1543171,47.9036655,-2.1221276
737368,Paray-vieille-poste (FR91),Guyancourt (FR78),18/03/2024 à 09:30 Rdv 9:30-10:30,18/03/2024 à 12:45 Rdv 11:45-12:45,48.7126093,2.3637838,48.7709414,2.0706084
734125,Castelnau-d'estrétefonds (FR31),Guéret (FR23),18/03/2024 à 08:30,18/03/2024 à 15:00 Rdv 13:00-15:00,43.78251,1.3590892,46.1686865,1.8713349
736970,Marckolsheim (FR67),Heillecourt (FR54),20/03/2024 à 08:30,20/03/2024 à 15:00 Rdv 13:00-15:00,48.165441,7.5444161,48.6530512,6.1947541
737447,Guyancourt (FR78),Illkirch-graffenstaden (FR67),18/03/2024 à 07:30 Rdv 7:30-8:30,18/03/2024 à 14:00 Rdv 13:00-14:00,48.7709414,2.0706084,48.5298611,7.7116218
736430,Saint-ail (FR54),Illkirch-graffenstaden (FR67),21/03/2024 à 08:15,21/03/2024 à 16:00 Rdv 14:00-16:00,49.1808501,5.9960901,48.5298611,7.7116218
736960,Saint-ail (FR54),Illzach (FR68),19/03/2024 à 08:15,19/03/2024 à 12:00,49.1808501,5.9960901,47.7815313,7.347339
736544,Saint-herblain (FR44),Isneauville (FR76),20/03/2024 à 09:00 Rdv 9:00-10:00,20/03/2024 à 15:00 Rdv 14:00-15:00,47.2238156,-1.6529932,49.4988394,1.1416384
737234,La norville (FR91),Issy-les-moulineaux (FR92),19/03/2024 à 08:30,19/03/2024 à 12:00 Rdv 10:00-12:00,48.5856753,2.2583893,48.8250508,2.273457
737316,Oliva (ES46),Jerez de la frontera (ES11),14/03/2024 à 09:00,15/03/2024 à 15:00,38.9202443,-0.1208981,36.6816936,-6.1377402
737168,Rivery (FR80),Kingersheim (FR68),04/04/2024 à 16:00,05/04/2024 à 14:30,49.9005828,2.3216925,47.7923002,7.3386856
735767,Asse (BE17),Kruibeke (BE91),25/03/2024 à 10:00,25/03/2024 à 15:00,50.9094333,4.2015646,51.17625475,4.298036873275151
736258,Orvault (FR44),L\'herbergement (FR85),18/03/2024 à 10:00 Rdv 10:00-11:00,18/03/2024 à 14:00,-1.6194319725,47.2511912196,0.0,0.0
737542,Seynod (FR74),L\'isle-d\'espagnac (FR16),19/03/2024 à 08:30 Rdv 8:30-9:30,19/03/2024 à 17:30 Rdv 16:00-17:30,0.0,0.0,45.6646231,0.2003336
736062,Dechy (FR59),La chapelle-d\'armentières (FR59),22/03/2024 à 08:30,22/03/2024 à 12:00 Rdv 10:00-12:00,50.354883,3.1299151,50.6727867,2.8965721
737109,Aubière (FR63),La chapelle-d\'aurec (FR43),03/04/2024 à 08:30,03/04/2024 à 12:00 Rdv 11:00-12:00,45.7512575,3.1144195,45.3355965,4.2072832
736731,Niort (FR79),La chapelle-sur-erdre (FR44),18/03/2024 à 09:30 Rdv 9:30-10:30,18/03/2024 à 14:30 Rdv 13:30-14:30,46.3239233,-0.4646064,47.2996846,-1.5518632
728942,Chartres-de-bretagne (FR35),La chapelle-sur-erdre (FR44),18/03/2024 à 08:00,18/03/2024 à 10:00 Rdv 9:00-10:00,48.0432406,-1.7082369,47.2996846,-1.5518632
736994,Avignon (FR84),La garde (FR83),15/03/2024 à 10:00,15/03/2024 à 16:00 Rdv 14:00-16:00,4.87174987793,43.9343986511,45.0691999,6.0449399
736382,Châteauneuf-de-gadagne (FR84),La roche-de-glun (FR26),25/03/2024 à 11:00 Rdv 11:00-13:00,25/03/2024 à 16:00,43.927603,4.9442687,45.0133527,4.8443331
735483,Saint-étienne (FR42),La roche-de-glun (FR26),14/03/2024 à 14:00 Rdv 14:00-16:00,15/03/2024 à 12:00,45.4401467,4.3873058,45.0133527,4.8443331
737179,Bassens (FR33),La roche-sur-yon (FR85),27/03/2024 à 09:00,27/03/2024 à 12:00,44.9015003,-0.5163222,46.6705431,-1.4269698
737157,Tarnos (FR40),Lacq (FR64),21/03/2024 à 08:00,21/03/2024 à 11:00,43.5405622,-1.4611915,43.42474795,-0.6137677299515235
736936,Montpellier (FR34),Lattes (FR34),15/04/2024 à 07:30 Rdv 7:30-8:30,15/04/2024 à 09:00,43.6112422,3.8767337,43.5653993,3.9017114
737016,Beaulieu (FR34),Le boulou (FR66),20/03/2024 à 11:00,20/03/2024 à 16:00,47.7277699,4.7269377,45.4051111,0.5863309
736220,Le rheu (FR35),Le cellier (FR44),18/03/2024 à 10:00 Rdv 10:00-12:00,18/03/2024 à 16:00,48.101097,-1.795384,47.3186735,-1.3465357
734974,Nort-sur-erdre (FR44),Le cellier (FR44),28/03/2024 à 09:00,28/03/2024 à 11:30,47.4398626,-1.499037,47.3186735,-1.3465357
737245,Varades (FR44),Le cellier (FR44),28/03/2024 à 09:00,28/03/2024 à 11:30,47.40778395,-1.0270194380626334,47.3186735,-1.3465357
733309,Vallet (FR44),Le cellier (FR44),27/03/2024 à 09:00,27/03/2024 à 11:30,47.1610036,-1.2657431,47.3186735,-1.3465357
728943,La chapelle-sur-erdre (FR44),Le cellier (FR44),18/03/2024 à 09:00 Rdv 9:00-10:00,18/03/2024 à 16:00,47.2996846,-1.5518632,47.3186735,-1.3465357
736282,Chartres-de-bretagne (FR35),Le rheu (FR35),15/03/2024 à 08:30,15/03/2024 à 12:00 Rdv 10:00-12:00,48.0432406,-1.7082369,48.101097,-1.795384
736219,Chartres-de-bretagne (FR35),Le rheu (FR35),18/03/2024 à 08:30,18/03/2024 à 12:00 Rdv 10:00-12:00,48.0432406,-1.7082369,48.101097,-1.795384
730524,La chapelle-des-fougeretz (FR35),Les andelys (FR27),18/03/2024 à 09:00,18/03/2024 à 13:30,48.178066,-1.7341163,49.2469193,1.4215534
736446,Locquignol (FR59),Lieu-saint-amand (FR59),25/03/2024 à 12:00 Rdv 12:00-14:00,25/03/2024 à 16:00,0.0,0.0,50.2729141,3.3461187
736779,Roye (FR80),Limas (FR69),28/03/2024 à 09:00,28/03/2024 à 17:00,49.6986186,2.7930755,45.9751893,4.7087667
737529,Bourges (FR18),Limoges (FR87),19/03/2024 à 09:45,19/03/2024 à 17:00 Rdv 15:00-17:00,47.0811658,2.399125,45.8354243,1.2644847
737502,Clermont-ferrand (FR63),Limoges (FR87),19/03/2024 à 13:00 Rdv 13:00-15:00,20/03/2024 à 12:00,45.7774551,3.0819427,45.8354243,1.2644847
736581,Limoges (FR87),Limoges (FR87),22/03/2024 à 12:00 Rdv 12:00-14:00,22/03/2024 à 16:00,45.8354243,1.2644847,45.8354243,1.2644847
736580,Bassens (FR33),Limoges (FR87),22/03/2024 à 08:30,22/03/2024 à 14:00 Rdv 12:00-14:00,44.9015003,-0.5163222,45.8354243,1.2644847
736253,Saint-cyr-sur-loire (FR37),Lisses (FR91),18/03/2024 à 10:15,19/03/2024 à 11:15,47.4052448,0.6658199,48.5960009,2.4237886
736445,Wavrin (FR59),Locquignol (FR59),25/03/2024 à 08:30,25/03/2024 à 14:00 Rdv 12:00-14:00,50.570559,2.932545,0.0,0.0
732148,Montoir-de-bretagne (FR44),Loudéac (FR22),21/03/2024 à 08:00,21/03/2024 à 11:15 Rdv 10:15-11:15,47.3285909,-2.1543171,48.1762534,-2.7535644
737530,Chipiona (ES11),"Luisiana, la (ES41)",18/03/2024 à 10:00 Rdv 10:00-12:00,18/03/2024 à 17:15,36.7355451,-6.4348221,303891.0,-9383689.0
737597,Torre del mar (ES29),"Luisiana, la (ES41)",19/03/2024 à 10:00 Rdv 10:00-12:00,19/03/2024 à 17:15,36.7413845,-4.0946126,303891.0,-9383689.0
736295,Orvault (FR44),Luçon (FR85),21/03/2024 à 09:30 Rdv 9:30-10:30,21/03/2024 à 14:00,-1.6194319725,47.2511912196,15.5919971,120.73967457219264
737181,Lagnieu (FR01),Lyon (FR69),19/03/2024 à 10:30,19/03/2024 à 15:30,45.9034952,5.3480192,45.7578137,4.8320114
737609,Vénissieux (FR69),Lyon (FR69),18/03/2024 à 09:00 Rdv 9:00-10:00,18/03/2024 à 11:00 Rdv 10:00-11:00,45.6977109,4.8855966,45.7578137,4.8320114
737148,Lagnieu (FR01),Lyon (FR69),19/03/2024 à 10:30,19/03/2024 à 15:30,45.9034952,5.3480192,45.7578137,4.8320114
737577,Poitiers (FR86),Léognan (FR33),14/03/2024 à 17:15 Rdv 17:15-18:15,15/03/2024 à 11:00 Rdv 10:00-11:00,46.5802596,0.340196,44.7294474,-0.5997267
737534,Vilvoorde (BE18),Machelen (BE18),18/03/2024 à 08:00,18/03/2024 à 15:30 Rdv 8:45-15:30,50.928711,4.423126,50.903150350789616,4.449248232844452
737139,Boortmeerbeek (BE31),Machelen (BE18),18/03/2024 à 08:00,18/03/2024 à 15:00 Rdv 8:45-15:00,50.978285850000006,4.575800524999997,50.903150350789616,4.449248232844452
737552,Guyancourt (FR78),Marseille (FR13),01/04/2024 à 09:30 Rdv 9:30-10:30,02/04/2024 à 11:00,48.7709414,2.0706084,43.2961743,5.3699525
735595,La farlede (FR83),Marseille (FR13),28/03/2024 à 08:30,28/03/2024 à 10:00,43.1597,6.04317,43.2961743,5.3699525
736745,Bougneau (FR17),Martignas sur jalle (FR33),20/03/2024 à 09:20,20/03/2024 à 16:20,45.5972347,-0.5144002,44.8405364,-0.7761489
736891,Marmande (FR47),Maubourguet (FR65),18/03/2024 à 10:00 Rdv 10:00-11:00,18/03/2024 à 16:00 Rdv 14:00-16:00,44.5007939,0.164274,43.4657,0.043272
735192,Saint-ail (FR54),Maxéville (FR54),22/03/2024 à 08:15,22/03/2024 à 12:00,49.1808501,5.9960901,48.7119046,6.1641314
736582,Zulte (BE98),Mechelen (BE28),18/03/2024 à 08:00,18/03/2024 à 16:00,50.9400485,3.475305501634618,51.0281381,4.4803453
736578,Zulte (BE98),Mechelen (BE28),18/03/2024 à 08:00,18/03/2024 à 16:00,50.9400485,3.475305501634618,51.0281381,4.4803453
736917,Montoir-de-bretagne (FR44),Mellac (FR29),21/03/2024 à 08:00,21/03/2024 à 13:00,47.3285909,-2.1543171,47.903995,-3.5775882
734064,Miramas (FR13),Mende (FR48),11/04/2024 à 08:30,11/04/2024 à 12:00 Rdv 10:00-12:00,43.582733,5.0025809,44.5180226,3.4991057
736362,Salon de provence (FR13),Meyreuil (FR13),08/04/2024 à 09:00,08/04/2024 à 15:00,43.6405237,5.0980225,43.4867359,5.4952155
737067,Mâcon (FR71),Meyzieu (FR69),25/03/2024 à 11:00,25/03/2024 à 13:30,46.3036683,4.8322266,45.7764637,5.0044767
737411,Colombes (FR92),Mitry-mory (FR77),25/03/2024 à 10:00 Rdv 10:00-12:00,25/03/2024 à 16:00,48.922788,2.2543577,48.9839674,2.6183971
731389,Paris (FR75),Mitry-mory (FR77),21/03/2024 à 14:00 Rdv 14:00-16:00,22/03/2024 à 12:00,48.8534951,2.3483915,48.9839674,2.6183971
737235,Issy-les-moulineaux (FR92),Mitry-mory (FR77),19/03/2024 à 10:00 Rdv 10:00-12:00,19/03/2024 à 16:00,48.8250508,2.273457,48.9839674,2.6183971
737559,Paris (FR75),Mitry-mory (FR77),18/03/2024 à 11:30,19/03/2024 à 11:30,48.8534951,2.3483915,48.9839674,2.6183971
737372,Grosbliederstroff (FR57),Molsheim (FR67),19/03/2024 à 12:00 Rdv 12:00-14:00,19/03/2024 à 16:00,49.1564879,7.0254677,48.5419351,7.4924679
736611,Moncel-lès-lunéville (FR54),Molsheim (FR67),18/03/2024 à 13:00 Rdv 13:00-15:00,18/03/2024 à 16:00,0.0,0.0,48.5419351,7.4924679
737169,Kingersheim (FR68),Molsheim (FR67),05/04/2024 à 14:30,05/04/2024 à 16:15,47.7923002,7.3386856,48.5419351,7.4924679
736610,Nanterre (FR92),Moncel-lès-lunéville (FR54),18/03/2024 à 09:30,18/03/2024 à 15:00 Rdv 13:00-15:00,48.8924273,2.2071267,0.0,0.0
734235,Castelnau-d'estrétefonds (FR31),Mont-de-marsan (FR40),18/03/2024 à 08:30,18/03/2024 à 13:00 Rdv 11:00-13:00,43.78251,1.3590892,43.8911318,-0.500972
734146,Castelnau-d'estrétefonds (FR31),Mont-de-marsan (FR40),18/03/2024 à 08:30,18/03/2024 à 13:00 Rdv 11:00-13:00,43.78251,1.3590892,43.8911318,-0.500972
737385,Rueil-malmaison (FR92),Mont-saint-aignan (FR76),20/03/2024 à 11:00,20/03/2024 à 15:30 Rdv 13:30-15:30,48.8791007996,2.17808008194,49.4679,1.0813
737097,Tarnos (FR40),Montardon (FR64),19/03/2024 à 08:00,19/03/2024 à 10:00,43.5405622,-1.4611915,43.3682751,-0.3502684
737087,Tarnos (FR40),Montardon (FR64),19/03/2024 à 08:00,19/03/2024 à 10:00,43.5405622,-1.4611915,43.3682751,-0.3502684
734963,Bassens (FR33),Montauban (FR82),20/03/2024 à 08:30,20/03/2024 à 14:00 Rdv 12:00-14:00,44.9015003,-0.5163222,44.0175835,1.3549991
737152,St doulchard (FR18),Montauban-de-bretagne (FR35),18/03/2024 à 09:00,18/03/2024 à 16:00,47.0999731,2.3729675,48.1998838,-2.0462319
737202,Ifs (FR14),Montauban-de-bretagne (FR35),18/03/2024 à 09:00 Rdv 9:00-11:00,18/03/2024 à 16:00,49.1380679,-0.3496385,48.1998838,-2.0462319
737305,Nanterre (FR92),Montauban-de-bretagne (FR35),19/03/2024 à 14:00 Rdv 14:00-16:00,20/03/2024 à 11:00,48.8924273,2.2071267,48.1998838,-2.0462319
736357,La chapelle-longueville (FR27),Montauban-de-bretagne (FR35),18/03/2024 à 10:00 Rdv 10:00-12:00,18/03/2024 à 17:00,49.1093602,1.4269352,48.1998838,-2.0462319
737098,Bussy-saint-georges (FR77),Montauban-de-bretagne (FR35),18/03/2024 à 14:00 Rdv 14:00-16:00,19/03/2024 à 11:00,48.8389953,2.7171086,48.1998838,-2.0462319
737107,Paris (FR75),Montauban-de-bretagne (FR35),18/03/2024 à 14:00 Rdv 14:00-16:00,19/03/2024 à 11:00,48.8534951,2.3483915,48.1998838,-2.0462319
735400,La bruffiere (FR85),Montauban-de-bretagne (FR35),20/03/2024 à 10:00 Rdv 10:00-12:00,20/03/2024 à 16:00,47.02245800712956,-1.191194223581551,48.1998838,-2.0462319
737226,Paris (FR75),Montauban-de-bretagne (FR35),19/03/2024 à 09:00 Rdv 9:00-11:00,19/03/2024 à 16:00,48.8534951,2.3483915,48.1998838,-2.0462319
737444,Levallois perret (FR92),Montauban-de-bretagne (FR35),20/03/2024 à 14:00 Rdv 14:00-16:00,21/03/2024 à 11:00,48.892956,2.2881683,48.1998838,-2.0462319
736911,Vélizy-villacoublay (FR78),Montauban-de-bretagne (FR35),18/03/2024 à 14:00 Rdv 14:00-16:00,19/03/2024 à 11:00,48.7809496,2.1900052,48.1998838,-2.0462319
737369,Ferrieres-en-brie (FR77),Montauban-de-bretagne (FR35),18/03/2024 à 14:00 Rdv 14:00-16:00,19/03/2024 à 11:00,48.8213887,2.7045126,48.1998838,-2.0462319
736986,Suresnes (FR92),Montauban-de-bretagne (FR35),18/03/2024 à 09:00 Rdv 9:00-11:00,18/03/2024 à 16:00,48.8709053,2.2255727,48.1998838,-2.0462319
737313,Chessy (FR77),Montauban-de-bretagne (FR35),19/03/2024 à 15:00 Rdv 15:00-17:00,20/03/2024 à 16:00,48.8798792,2.7658363,48.1998838,-2.0462319
737383,Jouy-le-moutier (FR95),Montauban-de-bretagne (FR35),18/03/2024 à 09:00 Rdv 9:00-11:00,18/03/2024 à 16:00,0.0,0.0,48.1998838,-2.0462319
736996,Chauny (FR02),Montauban-de-bretagne (FR35),18/03/2024 à 09:00 Rdv 9:00-11:00,18/03/2024 à 16:00,49.6148945,3.2189506,48.1998838,-2.0462319
737021,La verrière (FR78),Montauban-de-bretagne (FR35),18/03/2024 à 09:58,18/03/2024 à 14:58,48.7555258,1.9554697,48.1998838,-2.0462319
737418,Saint maurice (FR94),Montauban-de-bretagne (FR35),21/03/2024 à 15:00 Rdv 15:00-17:00,22/03/2024 à 12:00,48.3275249,7.3363439,48.1998838,-2.0462319
737216,Bosc-bordel (FR76),Montauban-de-bretagne (FR35),15/03/2024 à 09:00 Rdv 9:00-11:00,15/03/2024 à 16:00,49.5926269,1.4077667,48.1998838,-2.0462319
735450,Ambérieu-en-bugey (FR01),Montbonnot saint martin (FR38),02/04/2024 à 09:00,02/04/2024 à 13:00 Rdv 12:00-13:00,45.9584309,5.3595099,45.2264498,5.80266
737481,Poitiers (FR86),Montlouis-sur-loire (FR37),20/03/2024 à 08:30 Rdv 8:30-9:30,20/03/2024 à 13:00 Rdv 11:00-13:00,46.5802596,0.340196,47.3881023,0.8269289
735631,Saint-laurent-sur-sèvre (FR85),Montoir-de-bretagne (FR44),25/03/2024 à 11:30,25/03/2024 à 15:00,46.9597454,-0.8888005,47.3285909,-2.1543171
737545,Carcassonne (FR11),Montpellier (FR34),19/03/2024 à 10:00,19/03/2024 à 16:30 Rdv 14:30-16:30,43.2130358,2.3491069,43.6112422,3.8767337
725932,Ganges (FR34),Montpellier (FR34),18/03/2024 à 10:00,18/03/2024 à 16:00 Rdv 14:00-16:00,43.9344721,3.7095134,43.6112422,3.8767337
736111,Miramas (FR13),Montpellier (FR34),10/04/2024 à 08:30,10/04/2024 à 16:00 Rdv 14:00-16:00,43.582733,5.0025809,43.6112422,3.8767337
736113,Miramas (FR13),Montpellier (FR34),10/04/2024 à 08:30,10/04/2024 à 15:30 Rdv 13:30-15:30,43.582733,5.0025809,43.6112422,3.8767337
737551,Carcassonne (FR11),Montpellier (FR34),20/03/2024 à 10:00,20/03/2024 à 16:30 Rdv 14:30-16:30,43.2130358,2.3491069,43.6112422,3.8767337
736119,Miramas (FR13),Montpellier (FR34),10/04/2024 à 08:30,10/04/2024 à 11:00 Rdv 9:00-11:00,43.582733,5.0025809,43.6112422,3.8767337
736115,Miramas (FR13),Montpellier (FR34),10/04/2024 à 08:30,10/04/2024 à 12:00 Rdv 10:00-12:00,43.582733,5.0025809,43.6112422,3.8767337
736937,Lattes (FR34),Montpellier (FR34),15/04/2024 à 15:30 Rdv 15:30-16:30,15/04/2024 à 17:00,43.5653993,3.9017114,43.6112422,3.8767337
736667,Wommelgem (BE21),Mortsel (BE26),15/03/2024 à 11:30 Rdv 11:30-12:30,15/03/2024 à 14:45 Rdv 13:45-14:45,51.2031044,4.5238022,51.1704119,4.4566996
736148,Saint-ail (FR54),Mulhouse (FR68),25/03/2024 à 08:15,25/03/2024 à 12:00,49.1808501,5.9960901,47.7467233,7.3389937
737466,Toulouse (FR31),Mur-de-barrez (FR12),25/03/2024 à 15:00,26/03/2024 à 15:00 Rdv 14:00-15:00,43.6044622,1.4442469,44.8416264,2.6635471
737278,Seseña (ES45),Málaga (ES29),15/03/2024 à 12:30 Rdv 12:30-14:30,15/03/2024 à 20:00 Rdv 18:00-20:00,40.1048269,-3.6963093,36.7213028,-4.4216366
736868,Bassens (FR33),Mérignac (FR33),20/03/2024 à 08:30,20/03/2024 à 15:00 Rdv 13:00-15:00,44.9015003,-0.5163222,44.842168,-0.6469022
735932,Le bouscat (FR33),Mérignac (FR33),26/03/2024 à 09:00,26/03/2024 à 12:00 Rdv 10:00-12:00,44.8661755,-0.5992399,44.842168,-0.6469022
736293,Marckolsheim (FR67),Nancy (FR54),18/03/2024 à 12:00,18/03/2024 à 16:00 Rdv 14:00-16:00,48.165441,7.5444161,48.6937223,6.1834097
735566,Montoir-de-bretagne (FR44),Nantes (FR44),18/03/2024 à 08:30,18/03/2024 à 12:00 Rdv 10:00-12:00,47.3285909,-2.1543171,47.2186371,-1.5541362
734082,Castelnau-d'estrétefonds (FR31),Nice (FR06),18/03/2024 à 09:00,18/03/2024 à 16:00 Rdv 14:00-16:00,43.78251,1.3590892,43.7009358,7.2683912
737495,Carros (FR06),Nice (FR06),19/03/2024 à 09:00,19/03/2024 à 12:00 Rdv 10:00-12:00,43.7846,7.18785,43.7009358,7.2683912
735791,Le castellet (FR83),Nice (FR06),20/03/2024 à 13:00 Rdv 13:00-15:00,20/03/2024 à 18:30,0.0,0.0,43.7009358,7.2683912
736732,La chapelle-sur-erdre (FR44),Niort (FR79),18/03/2024 à 13:30 Rdv 13:30-14:30,18/03/2024 à 17:45 Rdv 16:45-17:45,47.2996846,-1.5518632,46.3239233,-0.4646064
736066,Sautron (FR44),Niort (FR79),21/03/2024 à 11:00 Rdv 11:00-12:00,21/03/2024 à 16:00 Rdv 15:00-16:00,47.2632611,-1.6683537,46.3239233,-0.4646064
736965,Bassens (FR33),Noe (FR31),18/03/2024 à 08:30,18/03/2024 à 16:00 Rdv 14:00-16:00,44.9015003,-0.5163222,0.0,0.0
736450,Forbach (FR57),Oeting (FR57),19/03/2024 à 09:53,19/03/2024 à 12:00 Rdv 10:00-12:00,49.1862822,6.8958562,49.1745826,6.9161261
737331,Wavrin (FR59),Oignies (FR62),19/03/2024 à 08:30,19/03/2024 à 12:00 Rdv 10:00-12:00,50.570559,2.932545,50.4643,2.99387
737564,Brive-la-gaillarde (FR19),Orvault (FR44),20/03/2024 à 14:00,22/03/2024 à 14:00,45.1584982,1.5332389,-1.6194319725,47.2511912196
736260,L\'herbergement (FR85),Orvault (FR44),18/03/2024 à 14:00,18/03/2024 à 17:45,0.0,0.0,-1.6194319725,47.2511912196
737367,Chilly-mazarin (FR91),Paray-vieille-poste (FR91),18/03/2024 à 08:30 Rdv 8:30-9:30,18/03/2024 à 10:30 Rdv 9:30-10:30,48.7026161,2.3123582,48.7126093,2.3637838
737429,Saint-pierre-du-perray (FR91),Parcay meslay (FR37),14/03/2024 à 09:00,19/03/2024 à 16:00,48.6137867,2.505381,47.4413885,0.7456752
729554,Ronchin (FR59),Parcay meslay (FR37),22/03/2024 à 14:00 Rdv 14:00-16:00,22/03/2024 à 18:00,50.6056749,3.0778827,47.4413885,0.7456752
733699,Illiers-combray (FR28),Parcay meslay (FR37),15/03/2024 à 09:00 Rdv 9:00-11:00,15/03/2024 à 16:00,0.0,0.0,47.4413885,0.7456752
736231,Chennevieres-sur-marne (FR94),Parcay meslay (FR37),18/03/2024 à 10:00,18/03/2024 à 12:00,0.0,0.0,47.4413885,0.7456752
733804,Corbehem (FR62),Parcay meslay (FR37),15/03/2024 à 10:00 Rdv 10:00-12:00,15/03/2024 à 16:00,0.0,0.0,47.4413885,0.7456752
737558,La norville (FR91),Paris (FR75),18/03/2024 à 10:15,18/03/2024 à 11:30,48.5856753,2.2583893,48.8534951,2.3483915
731388,Corbas (FR69),Paris (FR75),21/03/2024 à 08:30,21/03/2024 à 16:00 Rdv 14:00-16:00,45.6662663,4.9015205,48.8534951,2.3483915
737555,Limoges (FR87),Parçay-meslay (FR37),19/03/2024 à 15:00 Rdv 15:00-17:00,20/03/2024 à 15:00,45.8354243,1.2644847,47.4413885,0.7456752
736397,Bassens (FR33),Perpignan (FR66),21/03/2024 à 08:30,21/03/2024 à 16:00 Rdv 14:00-16:00,44.9015003,-0.5163222,42.6985304,2.8953121
732714,Montauban-de-bretagne (FR35),Pleudihen-sur-rance (FR22),15/04/2024 à 09:00,15/04/2024 à 11:00 Rdv 9:00-11:00,48.1998838,-2.0462319,48.5102781,-1.9510009
737482,Montlouis-sur-loire (FR37),Poitiers (FR86),20/03/2024 à 11:00 Rdv 11:00-13:00,20/03/2024 à 17:00,47.3881023,0.8269289,46.5802596,0.340196
737578,Léognan (FR33),Poitiers (FR86),15/03/2024 à 10:00 Rdv 10:00-11:00,15/03/2024 à 17:00,44.7294474,-0.5997267,46.5802596,0.340196
737458,Blain (FR44),Poitiers (FR86),22/03/2024 à 14:00 Rdv 14:00-16:00,01/04/2024 à 17:00,47.4755536,-1.7643647,46.5802596,0.340196
737550,Tours (FR37),Poitiers (FR86),20/03/2024 à 13:30 Rdv 13:30-14:30,20/03/2024 à 17:00,0.0,0.0,46.5802596,0.340196
736048,Nice (FR06),Puyloubier (FR13),25/03/2024 à 08:00 Rdv 8:00-9:00,25/03/2024 à 14:00 Rdv 12:00-14:00,43.7009358,7.2683912,43.5259569,5.6746188
736248,Archamps (FR74),Quincieux (FR69),18/03/2024 à 09:00 Rdv 9:00-11:00,18/03/2024 à 17:00,46.1354538,6.1332458,45.90900965105747,4.762067991264464
736494,Neulise (FR42),Quincieux (FR69),20/03/2024 à 09:00 Rdv 9:00-11:00,20/03/2024 à 12:00,45.9025,4.18068,45.90900965105747,4.762067991264464
733408,Meylan (FR38),Quincieux (FR69),19/03/2024 à 14:00 Rdv 14:00-16:00,19/03/2024 à 16:00,45.2097372,5.778361,45.90900965105747,4.762067991264464
734130,Wavrin (FR59),Rennes (FR35),08/04/2024 à 10:00 Rdv 10:00-15:00,09/04/2024 à 11:00 Rdv 9:00-11:00,50.570559,2.932545,48.1113387,-1.6800198
734212,Villevêque (FR49),Rennes (FR35),15/04/2024 à 08:30,15/04/2024 à 16:00 Rdv 14:00-16:00,47.5601026,-0.4230772,48.1113387,-1.6800198
737308,Castelnau-destrétefonds (FR31),Revel (FR31),02/04/2024 à 09:00,02/04/2024 à 12:00 Rdv 10:00-12:00,0.0,0.0,43.4582102,2.005589
736398,Perpignan (FR66),Rivesaltes (FR66),21/03/2024 à 14:00 Rdv 14:00-16:00,21/03/2024 à 16:00,42.6985304,2.8953121,42.7683568,2.8709277
735793,Wilrijk (BE26),Roeselare (BE88),18/03/2024 à 12:30,18/03/2024 à 16:30 Rdv 14:30-16:30,51.1700864,4.3942577,50.9444948,3.124765
737343,Escaudain (FR59),Roncq (FR59),15/03/2024 à 14:30 Rdv 14:30-16:30,15/03/2024 à 18:30,50.3333247,3.3438289,50.7531232,3.1209016
734242,Valenton (FR94),Rouen (FR76),20/03/2024 à 08:30,20/03/2024 à 13:00 Rdv 11:00-13:00,48.7443189,2.4699741,49.4404591,1.0939658
736643,Avrigny (FR60),Saint leger du bourg denis (FR76),18/03/2024 à 10:00,18/03/2024 à 17:00 Rdv 15:00-17:00,49.3817833,2.57932,49.4288,1.16414
737527,Ambérieu-en-bugey (FR01),Saint pierre de chandieu (FR69),19/03/2024 à 09:00,19/03/2024 à 16:00 Rdv 14:00-16:00,45.9584309,5.3595099,45.6446435,5.0100345
733156,Villepinte (FR93),Saint-aignan-de-grand-lieu (FR44),15/03/2024 à 12:00 Rdv 12:00-14:00,15/03/2024 à 15:00,43.2814917,2.0855714,47.1224436,-1.6345992
735414,Nantes (FR44),Saint-aignan-de-grand-lieu (FR44),18/03/2024 à 15:00 Rdv 15:00-17:00,18/03/2024 à 18:00,47.2186371,-1.5541362,47.1224436,-1.6345992
730526,Les andelys (FR27),Saint-aignan-de-grand-lieu (FR44),18/03/2024 à 14:00,18/03/2024 à 16:00,49.2469193,1.4215534,47.1224436,-1.6345992
736394,Clichy (FR92),Saint-aignan-de-grand-lieu (FR44),18/03/2024 à 14:00 Rdv 14:00-16:00,18/03/2024 à 17:00,48.9026,2.30551,47.1224436,-1.6345992
737004,Argenteuil (FR95),Saint-aignan-de-grand-lieu (FR44),18/03/2024 à 09:00 Rdv 9:00-11:00,18/03/2024 à 12:00,48.9479069,2.2481797,47.1224436,-1.6345992
737348,Carquefou (FR44),Saint-aignan-de-grand-lieu (FR44),18/03/2024 à 09:00 Rdv 9:00-11:00,18/03/2024 à 12:00,47.2971979,-1.4921233,47.1224436,-1.6345992
736262,Saint-aignan-grandlieu (FR44),Saint-aignan-grandlieu (FR44),18/03/2024 à 11:00 Rdv 11:00-13:00,18/03/2024 à 16:00,47.124601,-1.630937,47.124601,-1.630937
736261,Montoir-de-bretagne (FR44),Saint-aignan-grandlieu (FR44),18/03/2024 à 08:30,18/03/2024 à 13:00 Rdv 11:00-13:00,47.3285909,-2.1543171,47.124601,-1.630937
737195,Fessenheim (FR68),Saint-ail (FR54),21/03/2024 à 12:00,21/03/2024 à 16:15,47.915436,7.5360223,49.1808501,5.9960901
736149,Mulhouse (FR68),Saint-ail (FR54),25/03/2024 à 12:00,25/03/2024 à 16:30,47.7467233,7.3389937,49.1808501,5.9960901
736961,Illzach (FR68),Saint-ail (FR54),19/03/2024 à 12:00,19/03/2024 à 16:00,47.7815313,7.347339,49.1808501,5.9960901
736431,Illkirch-graffenstaden (FR67),Saint-ail (FR54),21/03/2024 à 14:00 Rdv 14:00-16:00,22/03/2024 à 09:30,48.5298611,7.7116218,49.1808501,5.9960901
736839,Rivery (FR80),Saint-alban-leysse (FR73),19/03/2024 à 10:00,19/03/2024 à 15:00,49.9005828,2.3216925,0.0,0.0
736831,Rivery (FR80),Saint-amand-sur-fion (FR51),18/03/2024 à 10:30,18/03/2024 à 16:00,49.9005828,2.3216925,0.0,0.0
735988,Bassens (FR33),Saint-aubin-de-blaye (FR33),21/03/2024 à 14:00,21/03/2024 à 16:00,44.9015003,-0.5163222,45.2662866,-0.5641823
735360,Castelnau-d\'estrétefonds (FR31),Saint-cernin-de-larche (FR19),02/04/2024 à 09:00,02/04/2024 à 12:00 Rdv 10:00-12:00,43.78251,1.3590892,45.1030652,1.4144957
737408,Ingrandes (FR86),Saint-cyr-sur-loire (FR37),19/03/2024 à 09:10,19/03/2024 à 15:00 Rdv 13:00-15:00,46.8759026,0.5688208,47.4052448,0.6658199
737185,Guyancourt (FR78),Saint-herblain (FR44),19/03/2024 à 09:00 Rdv 9:00-10:00,19/03/2024 à 15:00 Rdv 14:00-15:00,48.7709414,2.0706084,47.2238156,-1.6529932
736687,Champniers (FR16),Saint-jean-d\'illac (FR33),25/03/2024 à 08:30,25/03/2024 à 11:30,45.7145725,0.2050544,44.8101856,-0.7815257
736573,Varennes-sur-seine (FR77),Saint-laurent-nouan (FR41),18/03/2024 à 08:30 Rdv 8:30-10:30,18/03/2024 à 12:45 Rdv 10:45-12:45,48.3766097,2.9301414,47.7169881,1.6116899
737361,Carrières-sous-poissy (FR78),Saint-laurent-nouan (FR41),19/03/2024 à 08:30,19/03/2024 à 14:00 Rdv 12:00-14:00,48.9437694,2.0341747,47.7169881,1.6116899
735630,Montoir-de-bretagne (FR44),Saint-laurent-sur-sèvre (FR85),25/03/2024 à 08:00,25/03/2024 à 11:30,47.3285909,-2.1543171,46.9597454,-0.8888005
737601,Saint pierre de chandieu (FR69),Saint-priest (FR69),19/03/2024 à 14:00 Rdv 14:00-16:00,19/03/2024 à 16:00,45.6446435,5.0100345,0.0,0.0
735646,Mougins (FR06),Saint-raphaël (FR83),26/03/2024 à 10:45 Rdv 10:45-11:45,26/03/2024 à 15:00 Rdv 13:00-15:00,43.6008898,6.9963543,45.3043079,1.0747165
737182,Lyon (FR69),Saint-vulbas (FR01),19/03/2024 à 15:30,20/03/2024 à 15:30,45.7578137,4.8320114,45.8306,5.28959
737105,Frontenex (FR73),Saint-vulbas (FR01),04/04/2024 à 14:00,04/04/2024 à 16:00,45.6344,6.31187,45.8306,5.28959
735729,Dijon (FR21),Saint-vulbas (FR01),19/03/2024 à 14:00 Rdv 14:00-16:00,20/03/2024 à 12:00,47.3215806,5.0414701,45.8306,5.28959
736840,Saint-alban-leysse (FR73),Saint-vulbas (FR01),19/03/2024 à 15:00,20/03/2024 à 11:30,0.0,0.0,45.8306,5.28959
737149,Lyon (FR69),Saint-vulbas (FR01),19/03/2024 à 15:30,20/03/2024 à 15:30,45.7578137,4.8320114,45.8306,5.28959
735482,Lagnieu (FR01),Saint-étienne (FR42),18/03/2024 à 08:30,18/03/2024 à 16:00 Rdv 14:00-16:00,45.9034952,5.3480192,45.4401467,4.3873058
737562,Le cellier (FR44),Saint-évarzec (FR29),19/03/2024 à 09:00,19/03/2024 à 16:00 Rdv 14:00-16:00,47.3186735,-1.3465357,47.9367647,-4.0217135
736341,Miramas (FR13),Salon de provence (FR13),08/04/2024 à 08:00,08/04/2024 à 11:00 Rdv 9:00-11:00,43.582733,5.0025809,43.6405237,5.0980225
736065,Niort (FR79),Sautron (FR44),21/03/2024 à 08:30 Rdv 8:30-9:30,21/03/2024 à 12:00 Rdv 11:00-12:00,46.3239233,-0.4646064,47.2632611,-1.6683537
737236,Limas (FR69),Savigny (FR69),19/03/2024 à 08:30,19/03/2024 à 10:30,45.9751893,4.7087667,49.0491048,-1.3392101
737140,Tarnos (FR40),Serres-castet (FR64),20/03/2024 à 08:00,20/03/2024 à 11:00,43.5405622,-1.4611915,43.3861879,-0.3541989
737543,L\'isle-d\'espagnac (FR16),Seynod (FR74),19/03/2024 à 16:00 Rdv 16:00-17:30,20/03/2024 à 15:00,45.6646231,0.2003336,0.0,0.0
737213,Santa perpètua de mogoda (ES08),Solsona (ES25),18/03/2024 à 09:00,18/03/2024 à 17:00 Rdv 15:00-17:00,41.5328106,2.1823309,41.9945762,1.5184038
734922,Rivery (FR80),Sotteville-lès-rouen (FR76),18/03/2024 à 09:00,18/03/2024 à 11:00,49.9005828,2.3216925,49.4151549,1.089746
737112,Tarnos (FR40),Tarbes (FR65),20/03/2024 à 08:00,20/03/2024 à 10:00,43.5405622,-1.4611915,43.232858,781021.0
734960,Bassens (FR33),Tarbes (FR65),20/03/2024 à 09:30,20/03/2024 à 14:00 Rdv 12:00-14:00,44.9015003,-0.5163222,43.232858,781021.0
737158,Lacq (FR64),Tarnos (FR40),21/03/2024 à 11:00,21/03/2024 à 16:30,43.42474795,-0.6137677299515235,43.5405622,-1.4611915
736735,Bidart (FR64),Tarnos (FR40),19/03/2024 à 14:00 Rdv 14:00-16:00,20/03/2024 à 11:00,43.4391702,-1.5898909,43.5405622,-1.4611915
735412,Tarnos (FR40),Tarnos (FR40),19/03/2024 à 14:00 Rdv 14:00-16:00,19/03/2024 à 16:30,43.5405622,-1.4611915,43.5405622,-1.4611915
735411,Tarnos (FR40),Tarnos (FR40),19/03/2024 à 08:00,19/03/2024 à 16:00 Rdv 14:00-16:00,43.5405622,-1.4611915,43.5405622,-1.4611915
737129,Tarnos (FR40),Tartas (FR40),20/03/2024 à 08:00,20/03/2024 à 11:00,43.5405622,-1.4611915,43.8323121,-0.8095934
731169,Entzheim (FR67),Thiaucourt-regniéville (FR54),21/03/2024 à 09:36,21/03/2024 à 14:00 Rdv 12:00-14:00,48.5346177,7.6358832,48.9544506,5.8675157
736117,Miramas (FR13),Toulon (FR83),18/03/2024 à 08:30,18/03/2024 à 13:30 Rdv 11:30-13:30,43.582733,5.0025809,43.13384507846755,5.930004113739942
737549,Poitiers (FR86),Tours (FR37),20/03/2024 à 10:00 Rdv 10:00-11:00,20/03/2024 à 14:30 Rdv 13:30-14:30,46.5802596,0.340196,0.0,0.0
737252,Miramas (FR13),Valbonne (FR06),21/03/2024 à 09:00,21/03/2024 à 16:00 Rdv 14:00-16:00,43.582733,5.0025809,43.641141,7.0086255
737270,Donzère (FR26),Valence (FR26),25/03/2024 à 13:00,27/03/2024 à 15:00,44.4442014,4.7073439,44.93218139487108,4.8974107749120375
737271,Donzère (FR26),Valence (FR26),26/03/2024 à 13:00,28/03/2024 à 16:00,44.4442014,4.7073439,44.93218139487108,4.8974107749120375
737200,Billancelles (FR28),Valenton (FR94),29/03/2024 à 12:00,29/03/2024 à 15:45,48.4865445,1.2154512,48.7443189,2.4699741
737443,Astorga (ES24),Valladolid (ES47),14/03/2024 à 09:00,15/03/2024 à 15:00,42.4553555,-6.0529025,41.6521328,-4.728562
737396,Palencia (ES34),Valladolid (ES47),14/03/2024 à 09:00,15/03/2024 à 15:00,42.4096322,-4.616100410293067,41.6521328,-4.728562
737150,Valladolid (ES47),Valladolid (ES47),15/03/2024 à 09:00,15/03/2024 à 14:30,41.6521328,-4.728562,41.6521328,-4.728562
737610,Paris (FR75),Valognes (FR50),18/03/2024 à 09:15,18/03/2024 à 17:15,48.8534951,2.3483915,49.5089547,-1.4708174
736795,Chartres-de-bretagne (FR35),Valognes (FR50),22/03/2024 à 08:30,22/03/2024 à 16:00 Rdv 14:00-16:00,48.0432406,-1.7082369,49.5089547,-1.4708174
734992,Le mans (FR72),Varaville (FR14),18/03/2024 à 10:00,18/03/2024 à 15:00 Rdv 13:00-15:00,48.0073849,0.1967849,49.253386,-0.1582652
736930,Halluin (FR59),Vendin-lès-béthune (FR62),25/03/2024 à 11:00 Rdv 11:00-13:00,25/03/2024 à 16:00,50.7826693,3.1249234,50.548777,2.6008182
737332,Oignies (FR62),Vendin-lès-béthune (FR62),19/03/2024 à 10:00 Rdv 10:00-12:00,19/03/2024 à 16:00,50.4643,2.99387,50.548777,2.6008182
736200,Bassens (FR33),Villenave-d\'ornon (FR33),18/03/2024 à 09:30,18/03/2024 à 13:30 Rdv 11:30-13:30,44.9015003,-0.5163222,44.7737872,-0.5595029
735706,Romorantin-lanthenay (FR41),Villevêque (FR49),18/03/2024 à 09:00 Rdv 9:00-11:00,18/03/2024 à 16:00,47.3592182,1.7434925,47.5601026,-0.4230772
732598,La riche (FR37),Vivonne (FR86),19/03/2024 à 09:00,19/03/2024 à 11:00,47.3881295,0.6572824,46.4262128,0.2584318
735730,Tongeren (BE37),Waregem (BE87),25/03/2024 à 10:30,25/03/2024 à 16:00,50.7806267,5.4639172,50.8868222,3.4323622
735794,Roeselare (BE88),Wilrijk (BE26),18/03/2024 à 14:30 Rdv 14:30-16:30,18/03/2024 à 16:45,50.9444948,3.124765,51.1700864,4.3942577
736666,Antwerpen (BE20),Wommelgem (BE21),15/03/2024 à 10:45 Rdv 10:45-11:45,15/03/2024 à 12:30,51.2211097,4.3997081,51.2031044,4.5238022
734355,Forbach (FR57),Épinal (FR88),27/03/2024 à 08:30,27/03/2024 à 12:00 Rdv 10:00-12:00,49.1862822,6.8958562,48.1747684,6.4503643
